{"type":"FeatureCollection","features":[{"type":"Feature","properties":{"ID_station":"75120-35","nom_station":"Paris/Charonne/52","adresse_station":"75020 Paris","nom_porteur":"Autolib","type_charge":"","nbre_pdc":"1","type_connecteur":"","date_maj":"","observations":"Emplacement: Station - Station: Voirie - Places tiers: 6","source":"Autolib"},"geometry":{"type":"Point","coordinates":[2.3982137,48.8518536]}},{"type":"Feature","properties":{"ID_station":"92023-13","nom_station":"Clamart/Bourcillière/137","adresse_station":"92140 Clamart","nom_porteur":"Autolib","type_charge":"","nbre_pdc":"0","type_connecteur":"","date_maj":"","observations":"Emplacement: Station - Station: Voirie - Places tiers: 6","source":"Autolib"},"geometry":{"type":"Point","coordinates":[2.2271271,48.7813871]}},{"type":"Feature","properties":{"ID_station":"92032-08","nom_station":"Fontenay-aux-Roses/Lombard/20","adresse_station":"92260 Fontenay-aux-Roses","nom_porteur":"Autolib","type_charge":"","nbre_pdc":"0","type_connecteur":"","date_maj":"","observations":"Emplacement: Station - Station: Voirie - Places tiers: 6","source":"Autolib"},"geometry":{"type":"Point","coordinates":[2.293033,48.78919]}},{"type":"Feature","properties":{"ID_station":"92036-13","nom_station":"Gennevilliers/Louis Roche/125","adresse_station":"92230 Gennevilliers","nom_porteur":"Autolib","type_charge":"","nbre_pdc":"0","type_connecteur":"","date_maj":"","observations":"Emplacement: Station - Station: Voirie - Places tiers: 6","source":"Autolib"},"geometry":{"type":"Point","coordinates":[2.3143339,48.9269437]}},{"type":"Feature","properties":{"ID_station":"92040-13","nom_station":"Issy-les-Moulineaux/Ernest Renan/9","adresse_station":"92130 Issy-les-Moulineaux","nom_porteur":"Autolib","type_charge":"","nbre_pdc":"0","type_connecteur":"","date_maj":"","observations":"Emplacement: Station - Station: Voirie - Places tiers: 6","source":"Autolib"},"geometry":{"type":"Point","coordinates":[2.2836035,48.8295855]}},{"type":"Feature","properties":{"ID_station":"92040-22","nom_station":"Issy-les-Moulineaux/Égalité/57","adresse_station":"92130 Issy-les-Moulineaux","nom_porteur":"Autolib","type_charge":"","nbre_pdc":"0","type_connecteur":"","date_maj":"","observations":"Emplacement: Station - Station: Voirie - Places tiers: 6","source":"Autolib"},"geometry":{"type":"Point","coordinates":[2.260423,48.8167]}},{"type":"Feature","properties":{"ID_station":"92044-PG","nom_station":"Levallois-Perret/Pierre Brossolette/21","adresse_station":"92300 Levallois-Perret","nom_porteur":"Autolib","type_charge":"","nbre_pdc":"0","type_connecteur":"","date_maj":"","observations":"Emplacement: Station - Station: Parking - Places tiers: 6","source":"Autolib"},"geometry":{"type":"Point","coordinates":[2.2922568,48.8953575]}},{"type":"Feature","properties":{"ID_station":"92044-PJ","nom_station":"Levallois-Perret/Louise Michel/8","adresse_station":"92300 Levallois-Perret","nom_porteur":"Autolib","type_charge":"","nbre_pdc":"0","type_connecteur":"","date_maj":"","observations":"Emplacement: Station - Station: Parking - Places tiers: 6","source":"Autolib"},"geometry":{"type":"Point","coordinates":[2.2844274,48.8873092]}},{"type":"Feature","properties":{"ID_station":"92046-02","nom_station":"Malakoff/Gabriel Péri/120","adresse_station":"92240 Malakoff","nom_porteur":"Autolib","type_charge":"","nbre_pdc":"0","type_connecteur":"","date_maj":"","observations":"Emplacement: Station - Station: Voirie - Places tiers: 6","source":"Autolib"},"geometry":{"type":"Point","coordinates":[2.3040697,48.8192396]}},{"type":"Feature","properties":{"ID_station":"92048-09","nom_station":"Meudon/De Gaulle/19","adresse_station":"92190 Meudon","nom_porteur":"Autolib","type_charge":"","nbre_pdc":"0","type_connecteur":"","date_maj":"","observations":"Emplacement: Station - Station: Voirie - Places tiers: 6","source":"Autolib"},"geometry":{"type":"Point","coordinates":[2.2277686,48.787686]}},{"type":"Feature","properties":{"ID_station":"92050-04","nom_station":"Nanterre/Pablo Picasso/20","adresse_station":"92000 Nanterre","nom_porteur":"Autolib","type_charge":"","nbre_pdc":"0","type_connecteur":"","date_maj":"","observations":"Emplacement: Station - Station: Voirie - Places tiers: 6","source":"Autolib"},"geometry":{"type":"Point","coordinates":[2.214089,48.89231]}},{"type":"Feature","properties":{"ID_station":"92062-06","nom_station":"Puteaux/Francis de Pressensé/12","adresse_station":"92800 Puteaux","nom_porteur":"Autolib","type_charge":"","nbre_pdc":"0","type_connecteur":"","date_maj":"","observations":"Emplacement: Station - Station: Voirie - Places tiers: 6","source":"Autolib"},"geometry":{"type":"Point","coordinates":[2.2361346,48.8761876]}},{"type":"Feature","properties":{"ID_station":"92063-18","nom_station":"Rueil-Malmaison/Colmar/17","adresse_station":"92500 Rueil-Malmaison","nom_porteur":"Autolib","type_charge":"","nbre_pdc":"0","type_connecteur":"","date_maj":"","observations":"Emplacement: Station - Station: Voirie - Places tiers: 6","source":"Autolib"},"geometry":{"type":"Point","coordinates":[2.181057,48.8871]}},{"type":"Feature","properties":{"ID_station":"93006-05","nom_station":"Bagnolet/République/58","adresse_station":"93170 Bagnolet","nom_porteur":"Autolib","type_charge":"","nbre_pdc":"0","type_connecteur":"","date_maj":"","observations":"Emplacement: Station - Station: Voirie - Places tiers: 5","source":"Autolib"},"geometry":{"type":"Point","coordinates":[2.4181508,48.8611263]}},{"type":"Feature","properties":{"ID_station":"94044-02","nom_station":"Limeil-Brévannes/Lavoisier/12","adresse_station":"94450 Limeil-Brévannes","nom_porteur":"Autolib","type_charge":"","nbre_pdc":"0","type_connecteur":"","date_maj":"","observations":"Emplacement: Station - Station: Voirie - Places tiers: 4","source":"Autolib"},"geometry":{"type":"Point","coordinates":[2.490184,48.73963]}},{"type":"Feature","properties":{"ID_station":"75120-38","nom_station":"Paris/Frédérique Loliée/5","adresse_station":"75020 Paris","nom_porteur":"Autolib","type_charge":"","nbre_pdc":"1","type_connecteur":"","date_maj":"","observations":"Emplacement: Station - Station: Voirie - Places tiers: 6","source":"Autolib"},"geometry":{"type":"Point","coordinates":[2.4061582,48.8495131]}},{"type":"Feature","properties":{"ID_station":"92004-03","nom_station":"Asnières-sur-Seine/Normandie/22","adresse_station":"92600 Asnières-sur-Seine","nom_porteur":"Autolib","type_charge":"","nbre_pdc":"1","type_connecteur":"","date_maj":"","observations":"Emplacement: Station - Station: Voirie - Places tiers: 6","source":"Autolib"},"geometry":{"type":"Point","coordinates":[2.2852074,48.9059332]}},{"type":"Feature","properties":{"ID_station":"92004-09","nom_station":"Asnières-sur-Seine/Henri Say/11","adresse_station":"92600 Asnières-sur-Seine","nom_porteur":"Autolib","type_charge":"","nbre_pdc":"0","type_connecteur":"","date_maj":"","observations":"Emplacement: Station - Station: Voirie - Places tiers: 6","source":"Autolib"},"geometry":{"type":"Point","coordinates":[2.2767942,48.9152642]}},{"type":"Feature","properties":{"ID_station":"92012-08","nom_station":"Boulogne-Billancourt/André Morizet/121","adresse_station":"92100 Boulogne-Billancourt","nom_porteur":"Autolib","type_charge":"","nbre_pdc":"0","type_connecteur":"","date_maj":"","observations":"Emplacement: Station - Station: Voirie - Places tiers: 6","source":"Autolib"},"geometry":{"type":"Point","coordinates":[2.229398,48.840169]}},{"type":"Feature","properties":{"ID_station":"92012-11","nom_station":"Boulogne-Billancourt/Jean Jaurès/61","adresse_station":"92100 Boulogne-Billancourt","nom_porteur":"Autolib","type_charge":"","nbre_pdc":"0","type_connecteur":"","date_maj":"","observations":"Emplacement: Station - Station: Voirie - Places tiers: 6","source":"Autolib"},"geometry":{"type":"Point","coordinates":[2.2400622,48.83975]}},{"type":"Feature","properties":{"ID_station":"92012-13","nom_station":"Boulogne-Billancourt/Gallieni/114","adresse_station":"92100 Boulogne-Billancourt","nom_porteur":"Autolib","type_charge":"","nbre_pdc":"0","type_connecteur":"","date_maj":"","observations":"Emplacement: Espace - Station: Voirie - Places tiers: 6","source":"Autolib"},"geometry":{"type":"Point","coordinates":[2.239424,48.836581]}},{"type":"Feature","properties":{"ID_station":"92019-04","nom_station":"Châtenay-Malabry/Division Leclerc/81","adresse_station":"92290 Châtenay-Malabry","nom_porteur":"Autolib","type_charge":"","nbre_pdc":"0","type_connecteur":"","date_maj":"","observations":"Emplacement: Station - Station: Voirie - Places tiers: 6","source":"Autolib"},"geometry":{"type":"Point","coordinates":[2.2838864,48.7622887]}},{"type":"Feature","properties":{"ID_station":"92019-07","nom_station":"Châtenay-Malabry/Cyrano de Bergerac/6","adresse_station":"92290 Châtenay-Malabry","nom_porteur":"Autolib","type_charge":"","nbre_pdc":"0","type_connecteur":"","date_maj":"","observations":"Emplacement: Station - Station: Voirie - Places tiers: 6","source":"Autolib"},"geometry":{"type":"Point","coordinates":[2.250599,48.768495]}},{"type":"Feature","properties":{"ID_station":"92022-03","nom_station":"Chaville/Pavé des Gardes/33","adresse_station":"92370 Chaville","nom_porteur":"Autolib","type_charge":"","nbre_pdc":"0","type_connecteur":"","date_maj":"","observations":"Emplacement: Station - Station: Voirie - Places tiers: 6","source":"Autolib"},"geometry":{"type":"Point","coordinates":[2.184925,48.80551]}},{"type":"Feature","properties":{"ID_station":"92023-12","nom_station":"Clamart/Porte de Trivaux/130","adresse_station":"92140 Clamart","nom_porteur":"Autolib","type_charge":"","nbre_pdc":"0","type_connecteur":"","date_maj":"","observations":"Emplacement: Station - Station: Voirie - Places tiers: 6","source":"Autolib"},"geometry":{"type":"Point","coordinates":[2.237137,48.78468]}},{"type":"Feature","properties":{"ID_station":"92063-12","nom_station":"Rueil-Malmaison/Paul Doumer/3","adresse_station":"92500 Rueil-Malmaison","nom_porteur":"Autolib","type_charge":"","nbre_pdc":"0","type_connecteur":"","date_maj":"","observations":"Emplacement: Station - Station: Voirie - Places tiers: 6","source":"Autolib"},"geometry":{"type":"Point","coordinates":[2.1919207,48.8839089]}},{"type":"Feature","properties":{"ID_station":"92073-09","nom_station":"Suresnes/Tuilerie/33","adresse_station":"92150 Suresnes","nom_porteur":"Autolib","type_charge":"","nbre_pdc":"0","type_connecteur":"","date_maj":"","observations":"Emplacement: Station - Station: Voirie - Places tiers: 5","source":"Autolib"},"geometry":{"type":"Point","coordinates":[2.2133061,48.8618708]}},{"type":"Feature","properties":{"ID_station":"92075-03","nom_station":"Vanves/Larmeroux/12","adresse_station":"92170 Vanves","nom_porteur":"Autolib","type_charge":"","nbre_pdc":"0","type_connecteur":"","date_maj":"","observations":"Emplacement: Station - Station: Voirie - Places tiers: 6","source":"Autolib"},"geometry":{"type":"Point","coordinates":[2.2810709,48.8169686]}},{"type":"Feature","properties":{"ID_station":"92075-06","nom_station":"Vanves/Antoine Fratacci/34","adresse_station":"92170 Vanves","nom_porteur":"Autolib","type_charge":"","nbre_pdc":"0","type_connecteur":"","date_maj":"","observations":"Emplacement: Station - Station: Voirie - Places tiers: 6","source":"Autolib"},"geometry":{"type":"Point","coordinates":[2.28876,48.82101]}},{"type":"Feature","properties":{"ID_station":"93006-06","nom_station":"Bagnolet/Stalingrad/49","adresse_station":"93170 Bagnolet","nom_porteur":"Autolib","type_charge":"","nbre_pdc":"0","type_connecteur":"","date_maj":"","observations":"Emplacement: Station - Station: Voirie - Places tiers: 6","source":"Autolib"},"geometry":{"type":"Point","coordinates":[2.43015,48.87215]}},{"type":"Feature","properties":{"ID_station":"93006-07","nom_station":"Bagnolet/Edouard Vaillant/60","adresse_station":"93170 Bagnolet","nom_porteur":"Autolib","type_charge":"","nbre_pdc":"0","type_connecteur":"","date_maj":"","observations":"Emplacement: Station - Station: Voirie - Places tiers: 4","source":"Autolib"},"geometry":{"type":"Point","coordinates":[2.415732,48.85764]}},{"type":"Feature","properties":{"ID_station":"93029-14","nom_station":"Drancy/Roger Salengro/3","adresse_station":"93700 Drancy","nom_porteur":"Autolib","type_charge":"","nbre_pdc":"0","type_connecteur":"","date_maj":"","observations":"Emplacement: Station - Station: Voirie - Places tiers: 6","source":"Autolib"},"geometry":{"type":"Point","coordinates":[2.4411713,48.9216032]}},{"type":"Feature","properties":{"ID_station":"93055-12","nom_station":"Pantin/Jean Jaurès/150","adresse_station":"93500 Pantin","nom_porteur":"Autolib","type_charge":"","nbre_pdc":"0","type_connecteur":"","date_maj":"","observations":"Emplacement: Station - Station: Voirie - Places tiers: 6","source":"Autolib"},"geometry":{"type":"Point","coordinates":[2.398654,48.90915]}},{"type":"Feature","properties":{"ID_station":"93055-14","nom_station":"Pantin/Anatole France/1","adresse_station":"93500 Pantin","nom_porteur":"Autolib","type_charge":"","nbre_pdc":"0","type_connecteur":"","date_maj":"","observations":"Emplacement: Station - Station: Voirie - Places tiers: 6","source":"Autolib"},"geometry":{"type":"Point","coordinates":[2.4254593,48.8946957]}},{"type":"Feature","properties":{"ID_station":"93064-03","nom_station":"Rosny-sous-Bois/Rome/8","adresse_station":"93110 Rosny-sous-Bois","nom_porteur":"Autolib","type_charge":"","nbre_pdc":"0","type_connecteur":"","date_maj":"","observations":"Emplacement: Station - Station: Voirie - Places tiers: 6","source":"Autolib"},"geometry":{"type":"Point","coordinates":[2.475338,48.876218]}},{"type":"Feature","properties":{"ID_station":"93064-06","nom_station":"Rosny-sous-Bois/Variot/40","adresse_station":"93110 Rosny-sous-Bois","nom_porteur":"Autolib","type_charge":"","nbre_pdc":"0","type_connecteur":"","date_maj":"","observations":"Emplacement: Station - Station: Voirie - Places tiers: 7","source":"Autolib"},"geometry":{"type":"Point","coordinates":[2.4931178,48.8798646]}},{"type":"Feature","properties":{"ID_station":"93070-09","nom_station":"Saint-Ouen/Édouard Vaillant/28","adresse_station":"93400 Saint-Ouen","nom_porteur":"Autolib","type_charge":"","nbre_pdc":"0","type_connecteur":"","date_maj":"","observations":"Emplacement: Station - Station: Voirie - Places tiers: 5","source":"Autolib"},"geometry":{"type":"Point","coordinates":[2.3341342,48.9018633]}},{"type":"Feature","properties":{"ID_station":"93070-11","nom_station":"Saint-Ouen/Michelet/42","adresse_station":"93400 Saint-Ouen","nom_porteur":"Autolib","type_charge":"","nbre_pdc":"1","type_connecteur":"","date_maj":"","observations":"Emplacement: Station - Station: Voirie - Places tiers: 6","source":"Autolib"},"geometry":{"type":"Point","coordinates":[2.3441112,48.9102315]}},{"type":"Feature","properties":{"ID_station":"94002-02","nom_station":"Alfortville/Malleret-Joinville/16","adresse_station":"94140 Alfortville","nom_porteur":"Autolib","type_charge":"","nbre_pdc":"0","type_connecteur":"","date_maj":"","observations":"Emplacement: Espace - Station: Voirie - Places tiers: 6","source":"Autolib"},"geometry":{"type":"Point","coordinates":[2.4254131,48.8026584]}},{"type":"Feature","properties":{"ID_station":"94003-06","nom_station":"Arcueil/Paul Bert/21","adresse_station":"94110 Arcueil","nom_porteur":"Autolib","type_charge":"","nbre_pdc":"0","type_connecteur":"","date_maj":"","observations":"Emplacement: Station - Station: Voirie - Places tiers: 5","source":"Autolib"},"geometry":{"type":"Point","coordinates":[2.3288429,48.8042795]}},{"type":"Feature","properties":{"ID_station":"94016-01","nom_station":"Cachan/Camille Desmoulins/3","adresse_station":"94230 Cachan","nom_porteur":"Autolib","type_charge":"","nbre_pdc":"0","type_connecteur":"","date_maj":"","observations":"Emplacement: Espace - Station: Voirie - Places tiers: 4","source":"Autolib"},"geometry":{"type":"Point","coordinates":[2.3345857,48.7942674]}},{"type":"Feature","properties":{"ID_station":"94028-13","nom_station":"Créteil/Cotonou/4","adresse_station":"94000 Créteil","nom_porteur":"Autolib","type_charge":"","nbre_pdc":"0","type_connecteur":"","date_maj":"","observations":"Emplacement: Station - Station: Voirie - Places tiers: 6","source":"Autolib"},"geometry":{"type":"Point","coordinates":[2.4707901,48.7706043]}},{"type":"Feature","properties":{"ID_station":"94042-02","nom_station":"Joinville-le-Pont/Galliéni/1","adresse_station":"94340 Joinville-le-Pont","nom_porteur":"Autolib","type_charge":"","nbre_pdc":"0","type_connecteur":"","date_maj":"","observations":"Emplacement: Station - Station: Voirie - Places tiers: 6","source":"Autolib"},"geometry":{"type":"Point","coordinates":[2.4745761,48.8202532]}},{"type":"Feature","properties":{"ID_station":"94042-03","nom_station":"Joinville-le-Pont/Paris/39","adresse_station":"94340 Joinville-le-Pont","nom_porteur":"Autolib","type_charge":"","nbre_pdc":"0","type_connecteur":"","date_maj":"","observations":"Emplacement: Espace - Station: Voirie - Places tiers: 4","source":"Autolib"},"geometry":{"type":"Point","coordinates":[2.466862,48.8168]}},{"type":"Feature","properties":{"ID_station":"75101-05","nom_station":"Paris/Pyramides/12","adresse_station":"75001 Paris","nom_porteur":"Autolib","type_charge":"","nbre_pdc":"1","type_connecteur":"","date_maj":"","observations":"Emplacement: Station - Station: Voirie - Places tiers: 4","source":"Autolib"},"geometry":{"type":"Point","coordinates":[2.3329713,48.8648594]}},{"type":"Feature","properties":{"ID_station":"75102-06","nom_station":"Paris/Notre-Dame des Victoires/21","adresse_station":"75002 Paris","nom_porteur":"Autolib","type_charge":"","nbre_pdc":"0","type_connecteur":"","date_maj":"","observations":"Emplacement: Station - Station: Voirie - Places tiers: 4","source":"Autolib"},"geometry":{"type":"Point","coordinates":[2.3423247,48.8696994]}},{"type":"Feature","properties":{"ID_station":"75102-13","nom_station":"Paris/Dalayrac/19","adresse_station":"75002 Paris","nom_porteur":"Autolib","type_charge":"","nbre_pdc":"1","type_connecteur":"","date_maj":"","observations":"Emplacement: Station - Station: Voirie - Places tiers: 4","source":"Autolib"},"geometry":{"type":"Point","coordinates":[2.335097,48.868181]}},{"type":"Feature","properties":{"ID_station":"75102-16","nom_station":"Paris/Louvre/31","adresse_station":"75002 Paris","nom_porteur":"Autolib","type_charge":"","nbre_pdc":"0","type_connecteur":"","date_maj":"","observations":"Emplacement: Station - Station: Voirie - Places tiers: 4","source":"Autolib"},"geometry":{"type":"Point","coordinates":[2.3433342,48.8660947]}},{"type":"Feature","properties":{"ID_station":"75103-04","nom_station":"Paris/Réaumur/38","adresse_station":"75003 Paris","nom_porteur":"Autolib","type_charge":"","nbre_pdc":"1","type_connecteur":"","date_maj":"","observations":"Emplacement: Station - Station: Voirie - Places tiers: 4","source":"Autolib"},"geometry":{"type":"Point","coordinates":[2.3573678,48.8653769]}},{"type":"Feature","properties":{"ID_station":"75103-13","nom_station":"Paris/Saint-Martin/17","adresse_station":"75003 Paris","nom_porteur":"Autolib","type_charge":"","nbre_pdc":"0","type_connecteur":"","date_maj":"","observations":"Emplacement: Station - Station: Voirie - Places tiers: 4","source":"Autolib"},"geometry":{"type":"Point","coordinates":[2.360276,48.8681421]}},{"type":"Feature","properties":{"ID_station":"75104-07","nom_station":"Paris/Pont Louis-Philippe/24","adresse_station":"75004 Paris","nom_porteur":"Autolib","type_charge":"","nbre_pdc":"1","type_connecteur":"","date_maj":"","observations":"Emplacement: Station - Station: Voirie - Places tiers: 4","source":"Autolib"},"geometry":{"type":"Point","coordinates":[2.3562976,48.8557271]}},{"type":"Feature","properties":{"ID_station":"75104-11","nom_station":"Paris/Bourdon/41","adresse_station":"75004 Paris","nom_porteur":"Autolib","type_charge":"","nbre_pdc":"0","type_connecteur":"","date_maj":"","observations":"Emplacement: Espace - Station: Voirie - Places tiers: 5","source":"Autolib"},"geometry":{"type":"Point","coordinates":[2.3678127,48.8524894]}},{"type":"Feature","properties":{"ID_station":"75104-12","nom_station":"Paris/Schomberg/1","adresse_station":"75004 Paris","nom_porteur":"Autolib","type_charge":"","nbre_pdc":"0","type_connecteur":"","date_maj":"","observations":"Emplacement: Station - Station: Voirie - Places tiers: 4","source":"Autolib"},"geometry":{"type":"Point","coordinates":[2.362993,48.84925]}},{"type":"Feature","properties":{"ID_station":"75104-14","nom_station":"Paris/Nonnains d'Hyères/1","adresse_station":"75004 Paris","nom_porteur":"Autolib","type_charge":"","nbre_pdc":"1","type_connecteur":"","date_maj":"","observations":"Emplacement: Station - Station: Voirie - Places tiers: 4","source":"Autolib"},"geometry":{"type":"Point","coordinates":[2.358089,48.85378]}},{"type":"Feature","properties":{"ID_station":"75105-05","nom_station":"Paris/Paul Painlevé/7","adresse_station":"75005 Paris","nom_porteur":"Autolib","type_charge":"","nbre_pdc":"1","type_connecteur":"","date_maj":"","observations":"Emplacement: Station - Station: Voirie - Places tiers: 4","source":"Autolib"},"geometry":{"type":"Point","coordinates":[2.3444286,48.8499024]}},{"type":"Feature","properties":{"ID_station":"75105-11","nom_station":"Paris/Linné/18","adresse_station":"75005 Paris","nom_porteur":"Autolib","type_charge":"","nbre_pdc":"1","type_connecteur":"","date_maj":"","observations":"Emplacement: Station - Station: Voirie - Places tiers: 4","source":"Autolib"},"geometry":{"type":"Point","coordinates":[2.3548335,48.8452566]}},{"type":"Feature","properties":{"ID_station":"75105-13","nom_station":"Paris/Lacépède/38","adresse_station":"75005 Paris","nom_porteur":"Autolib","type_charge":"","nbre_pdc":"0","type_connecteur":"","date_maj":"","observations":"Emplacement: Station - Station: Voirie - Places tiers: 4","source":"Autolib"},"geometry":{"type":"Point","coordinates":[2.3507523,48.8441945]}},{"type":"Feature","properties":{"ID_station":"75105-15","nom_station":"Paris/Valette/2","adresse_station":"75005 Paris","nom_porteur":"Autolib","type_charge":"","nbre_pdc":"1","type_connecteur":"","date_maj":"","observations":"Emplacement: Station - Station: Voirie - Places tiers: 4","source":"Autolib"},"geometry":{"type":"Point","coordinates":[2.3469365,48.8479993]}},{"type":"Feature","properties":{"ID_station":"75105-16","nom_station":"Paris/Saint-Jacques/221","adresse_station":"75005 Paris","nom_porteur":"Autolib","type_charge":"","nbre_pdc":"0","type_connecteur":"","date_maj":"","observations":"Emplacement: Station - Station: Voirie - Places tiers: 4","source":"Autolib"},"geometry":{"type":"Point","coordinates":[2.341924,48.8438007]}},{"type":"Feature","properties":{"ID_station":"75106-11","nom_station":"Paris/Michelet/6","adresse_station":"75006 Paris","nom_porteur":"Autolib","type_charge":"","nbre_pdc":"1","type_connecteur":"","date_maj":"","observations":"Emplacement: Station - Station: Voirie - Places tiers: 4","source":"Autolib"},"geometry":{"type":"Point","coordinates":[2.3363896,48.8425631]}},{"type":"Feature","properties":{"ID_station":"75106-12","nom_station":"Paris/Raspail/136","adresse_station":"75006 Paris","nom_porteur":"Autolib","type_charge":"","nbre_pdc":"0","type_connecteur":"","date_maj":"","observations":"Emplacement: Station - Station: Voirie - Places tiers: 4","source":"Autolib"},"geometry":{"type":"Point","coordinates":[2.3292257,48.8425101]}},{"type":"Feature","properties":{"ID_station":"75106-13","nom_station":"Paris/Fleurus/2","adresse_station":"75006 Paris","nom_porteur":"Autolib","type_charge":"","nbre_pdc":"1","type_connecteur":"","date_maj":"","observations":"Emplacement: Station - Station: Voirie - Places tiers: 4","source":"Autolib"},"geometry":{"type":"Point","coordinates":[2.3321208,48.8471079]}},{"type":"Feature","properties":{"ID_station":"75106-15","nom_station":"Paris/Four/38","adresse_station":"75006 Paris","nom_porteur":"Autolib","type_charge":"","nbre_pdc":"1","type_connecteur":"","date_maj":"","observations":"Emplacement: Station - Station: Voirie - Places tiers: 4","source":"Autolib"},"geometry":{"type":"Point","coordinates":[2.3314662,48.8524509]}},{"type":"Feature","properties":{"ID_station":"75106-20","nom_station":"Paris/Danton/8","adresse_station":"75006 Paris","nom_porteur":"Autolib","type_charge":"","nbre_pdc":"0","type_connecteur":"","date_maj":"","observations":"Emplacement: Station - Station: Voirie - Places tiers: 6","source":"Autolib"},"geometry":{"type":"Point","coordinates":[2.342107,48.85262]}},{"type":"Feature","properties":{"ID_station":"75106-PA","nom_station":"Paris/Rennes/155","adresse_station":"75006 Paris","nom_porteur":"Autolib","type_charge":"","nbre_pdc":"0","type_connecteur":"","date_maj":"","observations":"Emplacement: Station - Station: Parking - Places tiers: 4","source":"Autolib"},"geometry":{"type":"Point","coordinates":[2.3252355,48.8451283]}},{"type":"Feature","properties":{"ID_station":"75107-20","nom_station":"Paris/Jean Nicot/10","adresse_station":"75007 Paris","nom_porteur":"Autolib","type_charge":"","nbre_pdc":"0","type_connecteur":"","date_maj":"","observations":"Emplacement: Station - Station: Voirie - Places tiers: 4","source":"Autolib"},"geometry":{"type":"Point","coordinates":[2.3069867,48.8611286]}},{"type":"Feature","properties":{"ID_station":"75108-16","nom_station":"Paris/Hoche/31","adresse_station":"75008 Paris","nom_porteur":"Autolib","type_charge":"","nbre_pdc":"0","type_connecteur":"","date_maj":"","observations":"Emplacement: Station - Station: Voirie - Places tiers: 4","source":"Autolib"},"geometry":{"type":"Point","coordinates":[2.3011232,48.8762882]}},{"type":"Feature","properties":{"ID_station":"75108-21","nom_station":"Paris/Pierre Charron/62","adresse_station":"75008 Paris","nom_porteur":"Autolib","type_charge":"","nbre_pdc":"0","type_connecteur":"","date_maj":"","observations":"Emplacement: Station - Station: Voirie - Places tiers: 4","source":"Autolib"},"geometry":{"type":"Point","coordinates":[2.3036203,48.8696448]}},{"type":"Feature","properties":{"ID_station":"75108-33","nom_station":"Paris/François 1er/38","adresse_station":"75008 Paris","nom_porteur":"Autolib","type_charge":"","nbre_pdc":"1","type_connecteur":"","date_maj":"","observations":"Emplacement: Station - Station: Voirie - Places tiers: 4","source":"Autolib"},"geometry":{"type":"Point","coordinates":[2.3046348,48.8682112]}},{"type":"Feature","properties":{"ID_station":"75109-05","nom_station":"Paris/Clichy/23","adresse_station":"75009 Paris","nom_porteur":"Autolib","type_charge":"","nbre_pdc":"1","type_connecteur":"","date_maj":"","observations":"Emplacement: Station - Station: Voirie - Places tiers: 4","source":"Autolib"},"geometry":{"type":"Point","coordinates":[2.3363,48.8826]}},{"type":"Feature","properties":{"ID_station":"75109-10","nom_station":"Paris/Rochechouart/31","adresse_station":"75009 Paris","nom_porteur":"Autolib","type_charge":"","nbre_pdc":"0","type_connecteur":"","date_maj":"","observations":"Emplacement: Station - Station: Voirie - Places tiers: 4","source":"Autolib"},"geometry":{"type":"Point","coordinates":[2.3454871,48.8829733]}},{"type":"Feature","properties":{"ID_station":"75109-19","nom_station":"Paris/La Fayette/56","adresse_station":"75009 Paris","nom_porteur":"Autolib","type_charge":"","nbre_pdc":"1","type_connecteur":"","date_maj":"","observations":"Emplacement: Station - Station: Voirie - Places tiers: 4","source":"Autolib"},"geometry":{"type":"Point","coordinates":[2.342083,48.875464]}},{"type":"Feature","properties":{"ID_station":"75109-22","nom_station":"Paris/Haussmann/6","adresse_station":"75009 Paris","nom_porteur":"Autolib","type_charge":"","nbre_pdc":"1","type_connecteur":"","date_maj":"","observations":"Emplacement: Station - Station: Voirie - Places tiers: 5","source":"Autolib"},"geometry":{"type":"Point","coordinates":[2.3387762,48.8723178]}},{"type":"Feature","properties":{"ID_station":"75110-02","nom_station":"Paris/Guy Patin/10","adresse_station":"75010 Paris","nom_porteur":"Autolib","type_charge":"","nbre_pdc":"0","type_connecteur":"","date_maj":"","observations":"Emplacement: Station - Station: Voirie - Places tiers: 5","source":"Autolib"},"geometry":{"type":"Point","coordinates":[2.351257,48.88363]}},{"type":"Feature","properties":{"ID_station":"75110-06","nom_station":"Paris/Villette/55","adresse_station":"75010 Paris","nom_porteur":"Autolib","type_charge":"","nbre_pdc":"0","type_connecteur":"","date_maj":"","observations":"Emplacement: Station - Station: Voirie - Places tiers: 4","source":"Autolib"},"geometry":{"type":"Point","coordinates":[2.3724186,48.8758773]}},{"type":"Feature","properties":{"ID_station":"75110-17","nom_station":"Paris/Claude Vellefaux/3","adresse_station":"75010 Paris","nom_porteur":"Autolib","type_charge":"","nbre_pdc":"1","type_connecteur":"","date_maj":"","observations":"Emplacement: Station - Station: Voirie - Places tiers: 4","source":"Autolib"},"geometry":{"type":"Point","coordinates":[2.3703034,48.8740623]}},{"type":"Feature","properties":{"ID_station":"75110-33","nom_station":"Paris/Poissonnière/64","adresse_station":"75010 Paris","nom_porteur":"Autolib","type_charge":"","nbre_pdc":"0","type_connecteur":"","date_maj":"","observations":"Emplacement: Station - Station: Voirie - Places tiers: 4","source":"Autolib"},"geometry":{"type":"Point","coordinates":[2.348162,48.87517]}},{"type":"Feature","properties":{"ID_station":"75111-17","nom_station":"Paris/République/128","adresse_station":"75011 Paris","nom_porteur":"Autolib","type_charge":"","nbre_pdc":"1","type_connecteur":"","date_maj":"","observations":"Emplacement: Station - Station: Voirie - Places tiers: 4","source":"Autolib"},"geometry":{"type":"Point","coordinates":[2.386178,48.8629398]}},{"type":"Feature","properties":{"ID_station":"75111-27","nom_station":"Paris/Voltaire/106","adresse_station":"75011 Paris","nom_porteur":"Autolib","type_charge":"","nbre_pdc":"1","type_connecteur":"","date_maj":"","observations":"Emplacement: Espace - Station: Voirie - Places tiers: 4","source":"Autolib"},"geometry":{"type":"Point","coordinates":[2.3773563,48.8592806]}},{"type":"Feature","properties":{"ID_station":"75111-29","nom_station":"Paris/Richard Lenoir/63","adresse_station":"75011 Paris","nom_porteur":"Autolib","type_charge":"","nbre_pdc":"0","type_connecteur":"","date_maj":"","observations":"Emplacement: Station - Station: Voirie - Places tiers: 4","source":"Autolib"},"geometry":{"type":"Point","coordinates":[2.3719914,48.86023]}},{"type":"Feature","properties":{"ID_station":"75111-32","nom_station":"Paris/Commandant Lamy/2","adresse_station":"75011 Paris","nom_porteur":"Autolib","type_charge":"","nbre_pdc":"0","type_connecteur":"","date_maj":"","observations":"Emplacement: Station - Station: Voirie - Places tiers: 4","source":"Autolib"},"geometry":{"type":"Point","coordinates":[2.374203,48.85579]}},{"type":"Feature","properties":{"ID_station":"75111-36","nom_station":"Paris/Parmentier/62","adresse_station":"75011 Paris","nom_porteur":"Autolib","type_charge":"","nbre_pdc":"0","type_connecteur":"","date_maj":"","observations":"Emplacement: Station - Station: Voirie - Places tiers: 4","source":"Autolib"},"geometry":{"type":"Point","coordinates":[2.3765261,48.862875]}},{"type":"Feature","properties":{"ID_station":"75112-02","nom_station":"Paris/Ledru-Rollin/88","adresse_station":"75012 Paris","nom_porteur":"Autolib","type_charge":"","nbre_pdc":"1","type_connecteur":"","date_maj":"","observations":"Emplacement: Station - Station: Voirie - Places tiers: 4","source":"Autolib"},"geometry":{"type":"Point","coordinates":[2.3754501,48.8506483]}},{"type":"Feature","properties":{"ID_station":"75112-07","nom_station":"Paris/Bastille/20","adresse_station":"75012 Paris","nom_porteur":"Autolib","type_charge":"","nbre_pdc":"0","type_connecteur":"","date_maj":"","observations":"Emplacement: Station - Station: Voirie - Places tiers: 4","source":"Autolib"},"geometry":{"type":"Point","coordinates":[2.3677,48.84803]}},{"type":"Feature","properties":{"ID_station":"75112-09","nom_station":"Paris/Crozatier/33","adresse_station":"75012 Paris","nom_porteur":"Autolib","type_charge":"","nbre_pdc":"1","type_connecteur":"","date_maj":"","observations":"Emplacement: Station - Station: Voirie - Places tiers: 4","source":"Autolib"},"geometry":{"type":"Point","coordinates":[2.3815222,48.8470504]}},{"type":"Feature","properties":{"ID_station":"75112-10","nom_station":"Paris/Bercy/108","adresse_station":"75012 Paris","nom_porteur":"Autolib","type_charge":"","nbre_pdc":"1","type_connecteur":"","date_maj":"","observations":"Emplacement: Station - Station: Voirie - Places tiers: 4","source":"Autolib"},"geometry":{"type":"Point","coordinates":[2.3805222,48.8391453]}},{"type":"Feature","properties":{"ID_station":"75112-12","nom_station":"Paris/Villiot/20","adresse_station":"75012 Paris","nom_porteur":"Autolib","type_charge":"","nbre_pdc":"0","type_connecteur":"","date_maj":"","observations":"Emplacement: Espace - Station: Voirie - Places tiers: 4","source":"Autolib"},"geometry":{"type":"Point","coordinates":[2.375976,48.841876]}},{"type":"Feature","properties":{"ID_station":"75112-22","nom_station":"Paris/Saint-Mandé/94","adresse_station":"75012 Paris","nom_porteur":"Autolib","type_charge":"","nbre_pdc":"1","type_connecteur":"","date_maj":"","observations":"Emplacement: Station - Station: Voirie - Places tiers: 4","source":"Autolib"},"geometry":{"type":"Point","coordinates":[2.407044,48.8444]}},{"type":"Feature","properties":{"ID_station":"75112-23","nom_station":"Paris/Saint-Mandé/48","adresse_station":"75012 Paris","nom_porteur":"Autolib","type_charge":"","nbre_pdc":"0","type_connecteur":"","date_maj":"","observations":"Emplacement: Station - Station: Voirie - Places tiers: 4","source":"Autolib"},"geometry":{"type":"Point","coordinates":[2.4019623,48.8449828]}},{"type":"Feature","properties":{"ID_station":"75112-35","nom_station":"Paris/Émile Laurent/1","adresse_station":"75012 Paris","nom_porteur":"Autolib","type_charge":"","nbre_pdc":"0","type_connecteur":"","date_maj":"","observations":"Emplacement: Station - Station: Voirie - Places tiers: 4","source":"Autolib"},"geometry":{"type":"Point","coordinates":[2.409631,48.84071]}},{"type":"Feature","properties":{"ID_station":"75112-36","nom_station":"Paris/Nation/26","adresse_station":"75012 Paris","nom_porteur":"Autolib","type_charge":"","nbre_pdc":"0","type_connecteur":"","date_maj":"","observations":"Emplacement: Station - Station: Voirie - Places tiers: 4","source":"Autolib"},"geometry":{"type":"Point","coordinates":[2.397014,48.84756]}},{"type":"Feature","properties":{"ID_station":"75113-08","nom_station":"Paris/Tolbiac/245","adresse_station":"75013 Paris","nom_porteur":"Autolib","type_charge":"","nbre_pdc":"1","type_connecteur":"","date_maj":"","observations":"Emplacement: Station - Station: Voirie - Places tiers: 4","source":"Autolib"},"geometry":{"type":"Point","coordinates":[2.3424498,48.8262319]}},{"type":"Feature","properties":{"ID_station":"75113-10","nom_station":"Paris/Vulpian/24","adresse_station":"75013 Paris","nom_porteur":"Autolib","type_charge":"","nbre_pdc":"1","type_connecteur":"","date_maj":"","observations":"Emplacement: Station - Station: Voirie - Places tiers: 4","source":"Autolib"},"geometry":{"type":"Point","coordinates":[2.3460584,48.8310493]}},{"type":"Feature","properties":{"ID_station":"75113-12","nom_station":"Paris/Gouthière/12","adresse_station":"75013 Paris","nom_porteur":"Autolib","type_charge":"","nbre_pdc":"0","type_connecteur":"","date_maj":"","observations":"Emplacement: Station - Station: Voirie - Places tiers: 4","source":"Autolib"},"geometry":{"type":"Point","coordinates":[2.3512076,48.8204223]}},{"type":"Feature","properties":{"ID_station":"75113-15","nom_station":"Paris/Sur Rosalie/4","adresse_station":"75013 Paris","nom_porteur":"Autolib","type_charge":"","nbre_pdc":"0","type_connecteur":"","date_maj":"","observations":"Emplacement: Station - Station: Voirie - Places tiers: 4","source":"Autolib"},"geometry":{"type":"Point","coordinates":[2.354094,48.83185]}},{"type":"Feature","properties":{"ID_station":"75113-21","nom_station":"Paris/Ivry/58","adresse_station":"75013 Paris","nom_porteur":"Autolib","type_charge":"","nbre_pdc":"0","type_connecteur":"","date_maj":"","observations":"Emplacement: Station - Station: Voirie - Places tiers: 4","source":"Autolib"},"geometry":{"type":"Point","coordinates":[2.364308,48.824068]}},{"type":"Feature","properties":{"ID_station":"75113-29","nom_station":"Paris/Hôpital/47","adresse_station":"75013 Paris","nom_porteur":"Autolib","type_charge":"","nbre_pdc":"0","type_connecteur":"","date_maj":"","observations":"Emplacement: Station - Station: Voirie - Places tiers: 4","source":"Autolib"},"geometry":{"type":"Point","coordinates":[2.362478,48.84019]}},{"type":"Feature","properties":{"ID_station":"75113-30","nom_station":"Paris/Fernand Braudel/21","adresse_station":"75013 Paris","nom_porteur":"Autolib","type_charge":"","nbre_pdc":"0","type_connecteur":"","date_maj":"","observations":"Emplacement: Station - Station: Voirie - Places tiers: 4","source":"Autolib"},"geometry":{"type":"Point","coordinates":[2.3724643,48.8362302]}},{"type":"Feature","properties":{"ID_station":"75113-31","nom_station":"Paris/Chevaleret/131","adresse_station":"75013 Paris","nom_porteur":"Autolib","type_charge":"","nbre_pdc":"1","type_connecteur":"","date_maj":"","observations":"Emplacement: Station - Station: Voirie - Places tiers: 4","source":"Autolib"},"geometry":{"type":"Point","coordinates":[2.3728943,48.8317344]}},{"type":"Feature","properties":{"ID_station":"75113-34","nom_station":"Paris/Françoise Dolto/1","adresse_station":"75013 Paris","nom_porteur":"Autolib","type_charge":"","nbre_pdc":"0","type_connecteur":"","date_maj":"","observations":"Emplacement: Station - Station: Voirie - Places tiers: 4","source":"Autolib"},"geometry":{"type":"Point","coordinates":[2.382635,48.82934]}},{"type":"Feature","properties":{"ID_station":"75101-06","nom_station":"Paris/Amiral Coligny/2","adresse_station":"75001 Paris","nom_porteur":"Autolib","type_charge":"","nbre_pdc":"1","type_connecteur":"","date_maj":"","observations":"Emplacement: Station - Station: Voirie - Places tiers: 4","source":"Autolib"},"geometry":{"type":"Point","coordinates":[2.34024,48.85971]}},{"type":"Feature","properties":{"ID_station":"75102-07","nom_station":"Paris/Bonne Nouvelle/21","adresse_station":"75002 Paris","nom_porteur":"Autolib","type_charge":"","nbre_pdc":"0","type_connecteur":"","date_maj":"","observations":"Emplacement: Station - Station: Voirie - Places tiers: 4","source":"Autolib"},"geometry":{"type":"Point","coordinates":[2.349722,48.8703]}},{"type":"Feature","properties":{"ID_station":"75102-12","nom_station":"Paris/Uzès/1","adresse_station":"75002 Paris","nom_porteur":"Autolib","type_charge":"","nbre_pdc":"0","type_connecteur":"","date_maj":"","observations":"Emplacement: Station - Station: Voirie - Places tiers: 4","source":"Autolib"},"geometry":{"type":"Point","coordinates":[2.3454538,48.8704209]}},{"type":"Feature","properties":{"ID_station":"75103-07","nom_station":"Paris/Perle/18","adresse_station":"75003 Paris","nom_porteur":"Autolib","type_charge":"","nbre_pdc":"0","type_connecteur":"","date_maj":"","observations":"Emplacement: Espace - Station: Voirie - Places tiers: 4","source":"Autolib"},"geometry":{"type":"Point","coordinates":[2.3613291,48.8597916]}},{"type":"Feature","properties":{"ID_station":"75104-10","nom_station":"Paris/Béthunes/36","adresse_station":"75004 Paris","nom_porteur":"Autolib","type_charge":"","nbre_pdc":"1","type_connecteur":"","date_maj":"","observations":"Emplacement: Station - Station: Voirie - Places tiers: 4","source":"Autolib"},"geometry":{"type":"Point","coordinates":[2.3563199,48.8510439]}},{"type":"Feature","properties":{"ID_station":"75104-15","nom_station":"Paris/Bourdon/9","adresse_station":"75004 Paris","nom_porteur":"Autolib","type_charge":"","nbre_pdc":"1","type_connecteur":"","date_maj":"","observations":"Emplacement: Station - Station: Voirie - Places tiers: 4","source":"Autolib"},"geometry":{"type":"Point","coordinates":[2.366004,48.8484226]}},{"type":"Feature","properties":{"ID_station":"75105-02","nom_station":"Paris/Dante/1","adresse_station":"75005 Paris","nom_porteur":"Autolib","type_charge":"","nbre_pdc":"0","type_connecteur":"","date_maj":"","observations":"Emplacement: Station - Station: Voirie - Places tiers: 4","source":"Autolib"},"geometry":{"type":"Point","coordinates":[2.3472476,48.8513879]}},{"type":"Feature","properties":{"ID_station":"75105-07","nom_station":"Paris/Bernardins/23","adresse_station":"75005 Paris","nom_porteur":"Autolib","type_charge":"","nbre_pdc":"0","type_connecteur":"","date_maj":"","observations":"Emplacement: Station - Station: Voirie - Places tiers: 4","source":"Autolib"},"geometry":{"type":"Point","coordinates":[2.350152,48.84934]}},{"type":"Feature","properties":{"ID_station":"75105-12","nom_station":"Paris/Monge/58","adresse_station":"75005 Paris","nom_porteur":"Autolib","type_charge":"","nbre_pdc":"1","type_connecteur":"","date_maj":"","observations":"Emplacement: Station - Station: Voirie - Places tiers: 4","source":"Autolib"},"geometry":{"type":"Point","coordinates":[2.3522773,48.8444276]}},{"type":"Feature","properties":{"ID_station":"75105-21","nom_station":"Paris/Claude Bernard/16","adresse_station":"75005 Paris","nom_porteur":"Autolib","type_charge":"","nbre_pdc":"1","type_connecteur":"","date_maj":"","observations":"Emplacement: Station - Station: Voirie - Places tiers: 4","source":"Autolib"},"geometry":{"type":"Point","coordinates":[2.3476575,48.8397733]}},{"type":"Feature","properties":{"ID_station":"75106-03","nom_station":"Paris/Madame/18","adresse_station":"75006 Paris","nom_porteur":"Autolib","type_charge":"","nbre_pdc":"0","type_connecteur":"","date_maj":"","observations":"Emplacement: Station - Station: Voirie - Places tiers: 4","source":"Autolib"},"geometry":{"type":"Point","coordinates":[2.3319002,48.8507628]}},{"type":"Feature","properties":{"ID_station":"75106-04","nom_station":"Paris/Bérite/3","adresse_station":"75006 Paris","nom_porteur":"Autolib","type_charge":"","nbre_pdc":"0","type_connecteur":"","date_maj":"","observations":"Emplacement: Station - Station: Voirie - Places tiers: 4","source":"Autolib"},"geometry":{"type":"Point","coordinates":[2.3239783,48.847875]}},{"type":"Feature","properties":{"ID_station":"75107-02","nom_station":"Paris/Bourdonnais/45","adresse_station":"75007 Paris","nom_porteur":"Autolib","type_charge":"","nbre_pdc":"1","type_connecteur":"","date_maj":"","observations":"Emplacement: Station - Station: Voirie - Places tiers: 4","source":"Autolib"},"geometry":{"type":"Point","coordinates":[2.299582,48.85807]}},{"type":"Feature","properties":{"ID_station":"75107-10","nom_station":"Paris/Duroc/2","adresse_station":"75007 Paris","nom_porteur":"Autolib","type_charge":"","nbre_pdc":"1","type_connecteur":"","date_maj":"","observations":"Emplacement: Station - Station: Voirie - Places tiers: 4","source":"Autolib"},"geometry":{"type":"Point","coordinates":[2.315725,48.8482825]}},{"type":"Feature","properties":{"ID_station":"75107-12","nom_station":"Paris/Bac/142","adresse_station":"75007 Paris","nom_porteur":"Autolib","type_charge":"","nbre_pdc":"1","type_connecteur":"","date_maj":"","observations":"Emplacement: Station - Station: Voirie - Places tiers: 5","source":"Autolib"},"geometry":{"type":"Point","coordinates":[2.3237968,48.8508194]}},{"type":"Feature","properties":{"ID_station":"75107-15","nom_station":"Paris/Martignac/2","adresse_station":"75007 Paris","nom_porteur":"Autolib","type_charge":"","nbre_pdc":"0","type_connecteur":"","date_maj":"","observations":"Emplacement: Station - Station: Voirie - Places tiers: 5","source":"Autolib"},"geometry":{"type":"Point","coordinates":[2.3195393,48.8593659]}},{"type":"Feature","properties":{"ID_station":"75108-03","nom_station":"Paris/Artois/11","adresse_station":"75008 Paris","nom_porteur":"Autolib","type_charge":"","nbre_pdc":"0","type_connecteur":"","date_maj":"","observations":"Emplacement: Station - Station: Voirie - Places tiers: 4","source":"Autolib"},"geometry":{"type":"Point","coordinates":[2.3080661,48.872759]}},{"type":"Feature","properties":{"ID_station":"75108-06","nom_station":"Paris/Matignon/2","adresse_station":"75008 Paris","nom_porteur":"Autolib","type_charge":"","nbre_pdc":"0","type_connecteur":"","date_maj":"","observations":"Emplacement: Station - Station: Voirie - Places tiers: 4","source":"Autolib"},"geometry":{"type":"Point","coordinates":[2.312597,48.87006]}},{"type":"Feature","properties":{"ID_station":"75108-09","nom_station":"Paris/Rome/73","adresse_station":"75008 Paris","nom_porteur":"Autolib","type_charge":"","nbre_pdc":"0","type_connecteur":"","date_maj":"","observations":"Emplacement: Station - Station: Voirie - Places tiers: 4","source":"Autolib"},"geometry":{"type":"Point","coordinates":[2.32056,48.881834]}},{"type":"Feature","properties":{"ID_station":"75108-10","nom_station":"Paris/Dutuit/1","adresse_station":"75008 Paris","nom_porteur":"Autolib","type_charge":"","nbre_pdc":"1","type_connecteur":"","date_maj":"","observations":"Emplacement: Station - Station: Voirie - Places tiers: 4","source":"Autolib"},"geometry":{"type":"Point","coordinates":[2.3156932,48.8662011]}},{"type":"Feature","properties":{"ID_station":"75108-11","nom_station":"Paris/Berri/10","adresse_station":"75008 Paris","nom_porteur":"Autolib","type_charge":"","nbre_pdc":"1","type_connecteur":"","date_maj":"","observations":"Emplacement: Station - Station: Voirie - Places tiers: 4","source":"Autolib"},"geometry":{"type":"Point","coordinates":[2.3041662,48.8724475]}},{"type":"Feature","properties":{"ID_station":"75108-14","nom_station":"Paris/Constantinople/4","adresse_station":"75008 Paris","nom_porteur":"Autolib","type_charge":"","nbre_pdc":"1","type_connecteur":"","date_maj":"","observations":"Emplacement: Station - Station: Voirie - Places tiers: 4","source":"Autolib"},"geometry":{"type":"Point","coordinates":[2.3214351,48.8797479]}},{"type":"Feature","properties":{"ID_station":"75108-18","nom_station":"Paris/Courcelles/69","adresse_station":"75008 Paris","nom_porteur":"Autolib","type_charge":"","nbre_pdc":"1","type_connecteur":"","date_maj":"","observations":"Emplacement: Station - Station: Voirie - Places tiers: 4","source":"Autolib"},"geometry":{"type":"Point","coordinates":[2.3044935,48.878351]}},{"type":"Feature","properties":{"ID_station":"75108-20","nom_station":"Paris/Malesherbes/113","adresse_station":"75008 Paris","nom_porteur":"Autolib","type_charge":"","nbre_pdc":"0","type_connecteur":"","date_maj":"","observations":"Emplacement: Station - Station: Voirie - Places tiers: 4","source":"Autolib"},"geometry":{"type":"Point","coordinates":[2.3134453,48.8800947]}},{"type":"Feature","properties":{"ID_station":"75108-30","nom_station":"Paris/George V/44","adresse_station":"75008 Paris","nom_porteur":"Autolib","type_charge":"","nbre_pdc":"1","type_connecteur":"","date_maj":"","observations":"Emplacement: Station - Station: Voirie - Places tiers: 4","source":"Autolib"},"geometry":{"type":"Point","coordinates":[2.3012817,48.8706486]}},{"type":"Feature","properties":{"ID_station":"75108-32","nom_station":"Paris/Tronchet/19","adresse_station":"75008 Paris","nom_porteur":"Autolib","type_charge":"","nbre_pdc":"0","type_connecteur":"","date_maj":"","observations":"Emplacement: Station - Station: Voirie - Places tiers: 4","source":"Autolib"},"geometry":{"type":"Point","coordinates":[2.3259728,48.8721041]}},{"type":"Feature","properties":{"ID_station":"75109-01","nom_station":"Paris/Adolphe Max/6","adresse_station":"75009 Paris","nom_porteur":"Autolib","type_charge":"","nbre_pdc":"0","type_connecteur":"","date_maj":"","observations":"Emplacement: Station - Station: Voirie - Places tiers: 4","source":"Autolib"},"geometry":{"type":"Point","coordinates":[2.329596,48.883011]}},{"type":"Feature","properties":{"ID_station":"75109-09","nom_station":"Paris/Chaussée d'Antin/5","adresse_station":"75009 Paris","nom_porteur":"Autolib","type_charge":"","nbre_pdc":"0","type_connecteur":"","date_maj":"","observations":"Emplacement: Station - Station: Voirie - Places tiers: 4","source":"Autolib"},"geometry":{"type":"Point","coordinates":[2.3338862,48.8716413]}},{"type":"Feature","properties":{"ID_station":"75109-16","nom_station":"Paris/La Fayette/7","adresse_station":"75009 Paris","nom_porteur":"Autolib","type_charge":"","nbre_pdc":"0","type_connecteur":"","date_maj":"","observations":"Emplacement: Station - Station: Voirie - Places tiers: 4","source":"Autolib"},"geometry":{"type":"Point","coordinates":[2.3348418,48.87357]}},{"type":"Feature","properties":{"ID_station":"75110-04","nom_station":"Paris/Louis Blanc/67","adresse_station":"75010 Paris","nom_porteur":"Autolib","type_charge":"","nbre_pdc":"0","type_connecteur":"","date_maj":"","observations":"Emplacement: Station - Station: Voirie - Places tiers: 4","source":"Autolib"},"geometry":{"type":"Point","coordinates":[2.3600404,48.8837053]}},{"type":"Feature","properties":{"ID_station":"75110-13","nom_station":"Paris/Saint-Martin/242","adresse_station":"75010 Paris","nom_porteur":"Autolib","type_charge":"","nbre_pdc":"0","type_connecteur":"","date_maj":"","observations":"Emplacement: Station - Station: Voirie - Places tiers: 4","source":"Autolib"},"geometry":{"type":"Point","coordinates":[2.3664877,48.8820721]}},{"type":"Feature","properties":{"ID_station":"75110-20","nom_station":"Paris/Beaurepaire/31","adresse_station":"75010 Paris","nom_porteur":"Autolib","type_charge":"","nbre_pdc":"1","type_connecteur":"","date_maj":"","observations":"Emplacement: Station - Station: Voirie - Places tiers: 4","source":"Autolib"},"geometry":{"type":"Point","coordinates":[2.364206,48.87119]}},{"type":"Feature","properties":{"ID_station":"75111-07","nom_station":"Paris/Saint-Antoine/199","adresse_station":"75011 Paris","nom_porteur":"Autolib","type_charge":"","nbre_pdc":"0","type_connecteur":"","date_maj":"","observations":"Emplacement: Espace - Station: Voirie - Places tiers: 4","source":"Autolib"},"geometry":{"type":"Point","coordinates":[2.3823163,48.8505136]}},{"type":"Feature","properties":{"ID_station":"75111-10","nom_station":"Paris/Parmentier/125","adresse_station":"75011 Paris","nom_porteur":"Autolib","type_charge":"","nbre_pdc":"1","type_connecteur":"","date_maj":"","observations":"Emplacement: Station - Station: Voirie - Places tiers: 4","source":"Autolib"},"geometry":{"type":"Point","coordinates":[2.371679,48.8690795]}},{"type":"Feature","properties":{"ID_station":"75111-13","nom_station":"Paris/Ledru Rollin/155","adresse_station":"75011 Paris","nom_porteur":"Autolib","type_charge":"","nbre_pdc":"1","type_connecteur":"","date_maj":"","observations":"Emplacement: Station - Station: Voirie - Places tiers: 4","source":"Autolib"},"geometry":{"type":"Point","coordinates":[2.3783382,48.8553267]}},{"type":"Feature","properties":{"ID_station":"75111-15","nom_station":"Paris/République/36","adresse_station":"75011 Paris","nom_porteur":"Autolib","type_charge":"","nbre_pdc":"0","type_connecteur":"","date_maj":"","observations":"Emplacement: Station - Station: Voirie - Places tiers: 4","source":"Autolib"},"geometry":{"type":"Point","coordinates":[2.3721102,48.8656694]}},{"type":"Feature","properties":{"ID_station":"75112-05","nom_station":"Paris/Charles Bossut/4","adresse_station":"75012 Paris","nom_porteur":"Autolib","type_charge":"","nbre_pdc":"1","type_connecteur":"","date_maj":"","observations":"Emplacement: Station - Station: Voirie - Places tiers: 4","source":"Autolib"},"geometry":{"type":"Point","coordinates":[2.3837959,48.8431847]}},{"type":"Feature","properties":{"ID_station":"75112-14","nom_station":"Paris/Lyon/19","adresse_station":"75012 Paris","nom_porteur":"Autolib","type_charge":"","nbre_pdc":"0","type_connecteur":"","date_maj":"","observations":"Emplacement: Station - Station: Voirie - Places tiers: 4","source":"Autolib"},"geometry":{"type":"Point","coordinates":[2.3717355,48.8472143]}},{"type":"Feature","properties":{"ID_station":"75112-15","nom_station":"Paris/Saint-Antoine/238","adresse_station":"75012 Paris","nom_porteur":"Autolib","type_charge":"","nbre_pdc":"1","type_connecteur":"","date_maj":"","observations":"Emplacement: Station - Station: Voirie - Places tiers: 4","source":"Autolib"},"geometry":{"type":"Point","coordinates":[2.3895684,48.8493367]}},{"type":"Feature","properties":{"ID_station":"75112-17","nom_station":"Paris/Henard/3","adresse_station":"75012 Paris","nom_porteur":"Autolib","type_charge":"","nbre_pdc":"1","type_connecteur":"","date_maj":"","observations":"Emplacement: Station - Station: Voirie - Places tiers: 4","source":"Autolib"},"geometry":{"type":"Point","coordinates":[2.389211,48.84154]}},{"type":"Feature","properties":{"ID_station":"75112-25","nom_station":"Paris/Reuilly/116","adresse_station":"75012 Paris","nom_porteur":"Autolib","type_charge":"","nbre_pdc":"1","type_connecteur":"","date_maj":"","observations":"Emplacement: Station - Station: Voirie - Places tiers: 4","source":"Autolib"},"geometry":{"type":"Point","coordinates":[2.3946269,48.840277]}},{"type":"Feature","properties":{"ID_station":"75112-27","nom_station":"Paris/Arnold Netter/10","adresse_station":"75012 Paris","nom_porteur":"Autolib","type_charge":"","nbre_pdc":"1","type_connecteur":"","date_maj":"","observations":"Emplacement: Station - Station: Voirie - Places tiers: 4","source":"Autolib"},"geometry":{"type":"Point","coordinates":[2.4050137,48.8415951]}},{"type":"Feature","properties":{"ID_station":"75112-29","nom_station":"Paris/Claude Decaen/26","adresse_station":"75012 Paris","nom_porteur":"Autolib","type_charge":"","nbre_pdc":"1","type_connecteur":"","date_maj":"","observations":"Emplacement: Station - Station: Voirie - Places tiers: 4","source":"Autolib"},"geometry":{"type":"Point","coordinates":[2.4002905,48.8351899]}},{"type":"Feature","properties":{"ID_station":"75112-30","nom_station":"Paris/Charolais/2","adresse_station":"75012 Paris","nom_porteur":"Autolib","type_charge":"","nbre_pdc":"1","type_connecteur":"","date_maj":"","observations":"Emplacement: Station - Station: Voirie - Places tiers: 4","source":"Autolib"},"geometry":{"type":"Point","coordinates":[2.3878529,48.839191]}},{"type":"Feature","properties":{"ID_station":"75112-32","nom_station":"Paris/Pommard/7","adresse_station":"75012 Paris","nom_porteur":"Autolib","type_charge":"","nbre_pdc":"0","type_connecteur":"","date_maj":"","observations":"Emplacement: Station - Station: Voirie - Places tiers: 4","source":"Autolib"},"geometry":{"type":"Point","coordinates":[2.3850356,48.8355193]}},{"type":"Feature","properties":{"ID_station":"75112-34","nom_station":"Paris/Picpus/122","adresse_station":"75012 Paris","nom_porteur":"Autolib","type_charge":"","nbre_pdc":"1","type_connecteur":"","date_maj":"","observations":"Emplacement: Station - Station: Voirie - Places tiers: 5","source":"Autolib"},"geometry":{"type":"Point","coordinates":[2.4022445,48.8373149]}},{"type":"Feature","properties":{"ID_station":"75113-02","nom_station":"Paris/Arago/52","adresse_station":"75013 Paris","nom_porteur":"Autolib","type_charge":"","nbre_pdc":"0","type_connecteur":"","date_maj":"","observations":"Emplacement: Station - Station: Voirie - Places tiers: 4","source":"Autolib"},"geometry":{"type":"Point","coordinates":[2.3446053,48.8351639]}},{"type":"Feature","properties":{"ID_station":"75113-05","nom_station":"Paris/Auguste Blanqui/120","adresse_station":"75013 Paris","nom_porteur":"Autolib","type_charge":"","nbre_pdc":"1","type_connecteur":"","date_maj":"","observations":"Emplacement: Station - Station: Voirie - Places tiers: 4","source":"Autolib"},"geometry":{"type":"Point","coordinates":[2.342243,48.83164]}},{"type":"Feature","properties":{"ID_station":"75113-14","nom_station":"Paris/Auguste Blanqui/50","adresse_station":"75013 Paris","nom_porteur":"Autolib","type_charge":"","nbre_pdc":"0","type_connecteur":"","date_maj":"","observations":"Emplacement: Station - Station: Voirie - Places tiers: 4","source":"Autolib"},"geometry":{"type":"Point","coordinates":[2.3499186,48.8299453]}},{"type":"Feature","properties":{"ID_station":"75113-18","nom_station":"Paris/Caillaux/24","adresse_station":"75013 Paris","nom_porteur":"Autolib","type_charge":"","nbre_pdc":"1","type_connecteur":"","date_maj":"","observations":"Emplacement: Station - Station: Voirie - Places tiers: 4","source":"Autolib"},"geometry":{"type":"Point","coordinates":[2.358905,48.82223]}},{"type":"Feature","properties":{"ID_station":"75113-32","nom_station":"Paris/Chevaleret/79","adresse_station":"75013 Paris","nom_porteur":"Autolib","type_charge":"","nbre_pdc":"0","type_connecteur":"","date_maj":"","observations":"Emplacement: Station - Station: Voirie - Places tiers: 4","source":"Autolib"},"geometry":{"type":"Point","coordinates":[2.376281,48.82881]}},{"type":"Feature","properties":{"ID_station":"75114-04","nom_station":"Paris/Boulard/1","adresse_station":"75014 Paris","nom_porteur":"Autolib","type_charge":"","nbre_pdc":"0","type_connecteur":"","date_maj":"","observations":"Emplacement: Station - Station: Voirie - Places tiers: 4","source":"Autolib"},"geometry":{"type":"Point","coordinates":[2.3297831,48.8348549]}},{"type":"Feature","properties":{"ID_station":"75114-10","nom_station":"Paris/Raymond Losserand/145","adresse_station":"75014 Paris","nom_porteur":"Autolib","type_charge":"","nbre_pdc":"0","type_connecteur":"","date_maj":"","observations":"Emplacement: Station - Station: Voirie - Places tiers: 4","source":"Autolib"},"geometry":{"type":"Point","coordinates":[2.313088,48.83126]}},{"type":"Feature","properties":{"ID_station":"75114-25","nom_station":"Paris/Catalogne/2","adresse_station":"75014 Paris","nom_porteur":"Autolib","type_charge":"","nbre_pdc":"1","type_connecteur":"","date_maj":"","observations":"Emplacement: Espace - Station: Voirie - Places tiers: 4","source":"Autolib"},"geometry":{"type":"Point","coordinates":[2.3186569,48.8367951]}},{"type":"Feature","properties":{"ID_station":"75114-32","nom_station":"Paris/Port-Royal/97","adresse_station":"75014 Paris","nom_porteur":"Autolib","type_charge":"","nbre_pdc":"0","type_connecteur":"","date_maj":"","observations":"Emplacement: Station - Station: Voirie - Places tiers: 6","source":"Autolib"},"geometry":{"type":"Point","coordinates":[2.3408664,48.8383124]}},{"type":"Feature","properties":{"ID_station":"75114-PD","nom_station":"Paris/Montparnasse/120","adresse_station":"75014 Paris","nom_porteur":"Autolib","type_charge":"","nbre_pdc":"0","type_connecteur":"","date_maj":"","observations":"Emplacement: Station - Station: Parking - Places tiers: 4","source":"Autolib"},"geometry":{"type":"Point","coordinates":[2.3297916,48.8418362]}},{"type":"Feature","properties":{"ID_station":"75115-04","nom_station":"Paris/Suffren/78","adresse_station":"75015 Paris","nom_porteur":"Autolib","type_charge":"","nbre_pdc":"1","type_connecteur":"","date_maj":"","observations":"Emplacement: Station - Station: Voirie - Places tiers: 4","source":"Autolib"},"geometry":{"type":"Point","coordinates":[2.2997986,48.851832]}},{"type":"Feature","properties":{"ID_station":"75115-13","nom_station":"Paris/Lourmel/79","adresse_station":"75015 Paris","nom_porteur":"Autolib","type_charge":"","nbre_pdc":"0","type_connecteur":"","date_maj":"","observations":"Emplacement: Station - Station: Voirie - Places tiers: 5","source":"Autolib"},"geometry":{"type":"Point","coordinates":[2.287503,48.8451076]}},{"type":"Feature","properties":{"ID_station":"75115-19","nom_station":"Paris/Lecourbe/178","adresse_station":"75015 Paris","nom_porteur":"Autolib","type_charge":"","nbre_pdc":"0","type_connecteur":"","date_maj":"","observations":"Emplacement: Station - Station: Voirie - Places tiers: 4","source":"Autolib"},"geometry":{"type":"Point","coordinates":[2.2977543,48.8412037]}},{"type":"Feature","properties":{"ID_station":"75115-22","nom_station":"Paris/Félix Faure/109","adresse_station":"75015 Paris","nom_porteur":"Autolib","type_charge":"","nbre_pdc":"1","type_connecteur":"","date_maj":"","observations":"Emplacement: Espace - Station: Voirie - Places tiers: 4","source":"Autolib"},"geometry":{"type":"Point","coordinates":[2.2824849,48.8389208]}},{"type":"Feature","properties":{"ID_station":"75115-28","nom_station":"Paris/Dantzig/37","adresse_station":"75015 Paris","nom_porteur":"Autolib","type_charge":"","nbre_pdc":"1","type_connecteur":"","date_maj":"","observations":"Emplacement: Station - Station: Voirie - Places tiers: 4","source":"Autolib"},"geometry":{"type":"Point","coordinates":[2.2987201,48.8335103]}},{"type":"Feature","properties":{"ID_station":"75115-32","nom_station":"Paris/Convention/171","adresse_station":"75015 Paris","nom_porteur":"Autolib","type_charge":"","nbre_pdc":"0","type_connecteur":"","date_maj":"","observations":"Emplacement: Station - Station: Voirie - Places tiers: 4","source":"Autolib"},"geometry":{"type":"Point","coordinates":[2.2943442,48.8383125]}},{"type":"Feature","properties":{"ID_station":"75115-33","nom_station":"Paris/Émile Zola/143","adresse_station":"75015 Paris","nom_porteur":"Autolib","type_charge":"","nbre_pdc":"0","type_connecteur":"","date_maj":"","observations":"Emplacement: Station - Station: Voirie - Places tiers: 4","source":"Autolib"},"geometry":{"type":"Point","coordinates":[2.2953347,48.8471694]}},{"type":"Feature","properties":{"ID_station":"75115-34","nom_station":"Paris/Vouillé/47","adresse_station":"75015 Paris","nom_porteur":"Autolib","type_charge":"","nbre_pdc":"0","type_connecteur":"","date_maj":"","observations":"Emplacement: Station - Station: Voirie - Places tiers: 4","source":"Autolib"},"geometry":{"type":"Point","coordinates":[2.3081344,48.8338872]}},{"type":"Feature","properties":{"ID_station":"75115-41","nom_station":"Paris/Finlay/43","adresse_station":"75015 Paris","nom_porteur":"Autolib","type_charge":"","nbre_pdc":"0","type_connecteur":"","date_maj":"","observations":"Emplacement: Station - Station: Voirie - Places tiers: 4","source":"Autolib"},"geometry":{"type":"Point","coordinates":[2.2912934,48.8512259]}},{"type":"Feature","properties":{"ID_station":"75115-43","nom_station":"Paris/Pasteur/41","adresse_station":"75015 Paris","nom_porteur":"Autolib","type_charge":"","nbre_pdc":"1","type_connecteur":"","date_maj":"","observations":"Emplacement: Station - Station: Voirie - Places tiers: 4","source":"Autolib"},"geometry":{"type":"Point","coordinates":[2.3132661,48.8426446]}},{"type":"Feature","properties":{"ID_station":"75115-57","nom_station":"Paris/Suffren/2","adresse_station":"75015 Paris","nom_porteur":"Autolib","type_charge":"","nbre_pdc":"0","type_connecteur":"","date_maj":"","observations":"Emplacement: Station - Station: Voirie - Places tiers: 4","source":"Autolib"},"geometry":{"type":"Point","coordinates":[2.2917,48.857]}},{"type":"Feature","properties":{"ID_station":"75115-59","nom_station":"Paris/Morillons/95","adresse_station":"75015 Paris","nom_porteur":"Autolib","type_charge":"","nbre_pdc":"0","type_connecteur":"","date_maj":"","observations":"Emplacement: Station - Station: Voirie - Places tiers: 4","source":"Autolib"},"geometry":{"type":"Point","coordinates":[2.3048474,48.8319972]}},{"type":"Feature","properties":{"ID_station":"75115-61","nom_station":"Paris/Beaugrenelle/4","adresse_station":"75015 Paris","nom_porteur":"Autolib","type_charge":"","nbre_pdc":"1","type_connecteur":"","date_maj":"","observations":"Emplacement: Station - Station: Voirie - Places tiers: 5","source":"Autolib"},"geometry":{"type":"Point","coordinates":[2.2847016,48.8478735]}},{"type":"Feature","properties":{"ID_station":"75116-01","nom_station":"Paris/Grande Armée/13","adresse_station":"75016 Paris","nom_porteur":"Autolib","type_charge":"","nbre_pdc":"0","type_connecteur":"","date_maj":"","observations":"Emplacement: Espace - Station: Voirie - Places tiers: 4","source":"Autolib"},"geometry":{"type":"Point","coordinates":[2.2915841,48.874641]}},{"type":"Feature","properties":{"ID_station":"75116-04","nom_station":"Paris/Victor Hugo/18","adresse_station":"75016 Paris","nom_porteur":"Autolib","type_charge":"","nbre_pdc":"0","type_connecteur":"","date_maj":"","observations":"Emplacement: Station - Station: Voirie - Places tiers: 4","source":"Autolib"},"geometry":{"type":"Point","coordinates":[2.2915577,48.8724415]}},{"type":"Feature","properties":{"ID_station":"75116-06","nom_station":"Paris/Grande Armée/81","adresse_station":"75016 Paris","nom_porteur":"Autolib","type_charge":"","nbre_pdc":"1","type_connecteur":"","date_maj":"","observations":"Emplacement: Station - Station: Voirie - Places tiers: 4","source":"Autolib"},"geometry":{"type":"Point","coordinates":[2.284882,48.87683]}},{"type":"Feature","properties":{"ID_station":"75116-09","nom_station":"Paris/Raymond Poincaré/51","adresse_station":"75016 Paris","nom_porteur":"Autolib","type_charge":"","nbre_pdc":"1","type_connecteur":"","date_maj":"","observations":"Emplacement: Station - Station: Voirie - Places tiers: 4","source":"Autolib"},"geometry":{"type":"Point","coordinates":[2.2858795,48.8669712]}},{"type":"Feature","properties":{"ID_station":"75116-14","nom_station":"Paris/Émile Augier/20","adresse_station":"75016 Paris","nom_porteur":"Autolib","type_charge":"","nbre_pdc":"1","type_connecteur":"","date_maj":"","observations":"Emplacement: Station - Station: Voirie - Places tiers: 4","source":"Autolib"},"geometry":{"type":"Point","coordinates":[2.2740467,48.8602593]}},{"type":"Feature","properties":{"ID_station":"75116-17","nom_station":"Paris/Chernoviz/12","adresse_station":"75016 Paris","nom_porteur":"Autolib","type_charge":"","nbre_pdc":"0","type_connecteur":"","date_maj":"","observations":"Emplacement: Station - Station: Voirie - Places tiers: 4","source":"Autolib"},"geometry":{"type":"Point","coordinates":[2.2811121,48.8579379]}},{"type":"Feature","properties":{"ID_station":"75116-21","nom_station":"Paris/Delessert/23","adresse_station":"75016 Paris","nom_porteur":"Autolib","type_charge":"","nbre_pdc":"0","type_connecteur":"","date_maj":"","observations":"Emplacement: Station - Station: Voirie - Places tiers: 4","source":"Autolib"},"geometry":{"type":"Point","coordinates":[2.2851211,48.8585701]}},{"type":"Feature","properties":{"ID_station":"75116-29","nom_station":"Paris/Mozart/101","adresse_station":"75016 Paris","nom_porteur":"Autolib","type_charge":"","nbre_pdc":"0","type_connecteur":"","date_maj":"","observations":"Emplacement: Station - Station: Voirie - Places tiers: 4","source":"Autolib"},"geometry":{"type":"Point","coordinates":[2.2678125,48.8515283]}},{"type":"Feature","properties":{"ID_station":"75116-32","nom_station":"Paris/Murat/98","adresse_station":"75016 Paris","nom_porteur":"Autolib","type_charge":"","nbre_pdc":"0","type_connecteur":"","date_maj":"","observations":"Emplacement: Station - Station: Voirie - Places tiers: 6","source":"Autolib"},"geometry":{"type":"Point","coordinates":[2.2567427,48.8389361]}},{"type":"Feature","properties":{"ID_station":"75116-PG","nom_station":"Paris/Versailles/178","adresse_station":"75016 Paris","nom_porteur":"Autolib","type_charge":"","nbre_pdc":"0","type_connecteur":"","date_maj":"","observations":"Emplacement: Station - Station: Parking - Places tiers: 4","source":"Autolib"},"geometry":{"type":"Point","coordinates":[2.2628916,48.8396733]}},{"type":"Feature","properties":{"ID_station":"75117-01","nom_station":"Paris/Pereire/271","adresse_station":"75017 Paris","nom_porteur":"Autolib","type_charge":"","nbre_pdc":"1","type_connecteur":"","date_maj":"","observations":"Emplacement: Station - Station: Voirie - Places tiers: 4","source":"Autolib"},"geometry":{"type":"Point","coordinates":[2.2851178,48.8781047]}},{"type":"Feature","properties":{"ID_station":"75117-03","nom_station":"Paris/Navier/1","adresse_station":"75017 Paris","nom_porteur":"Autolib","type_charge":"","nbre_pdc":"1","type_connecteur":"","date_maj":"","observations":"Emplacement: Station - Station: Voirie - Places tiers: 4","source":"Autolib"},"geometry":{"type":"Point","coordinates":[2.3282817,48.8955462]}},{"type":"Feature","properties":{"ID_station":"75117-04","nom_station":"Paris/Mac Mahon/5","adresse_station":"75017 Paris","nom_porteur":"Autolib","type_charge":"","nbre_pdc":"0","type_connecteur":"","date_maj":"","observations":"Emplacement: Station - Station: Voirie - Places tiers: 4","source":"Autolib"},"geometry":{"type":"Point","coordinates":[2.2945178,48.8754776]}},{"type":"Feature","properties":{"ID_station":"75117-06","nom_station":"Paris/Ternes/73","adresse_station":"75017 Paris","nom_porteur":"Autolib","type_charge":"","nbre_pdc":"1","type_connecteur":"","date_maj":"","observations":"Emplacement: Espace - Station: Voirie - Places tiers: 5","source":"Autolib"},"geometry":{"type":"Point","coordinates":[2.2899947,48.8794622]}},{"type":"Feature","properties":{"ID_station":"75117-11","nom_station":"Paris/Navier/47","adresse_station":"75017 Paris","nom_porteur":"Autolib","type_charge":"","nbre_pdc":"0","type_connecteur":"","date_maj":"","observations":"Emplacement: Station - Station: Voirie - Places tiers: 4","source":"Autolib"},"geometry":{"type":"Point","coordinates":[2.3242009,48.8957574]}},{"type":"Feature","properties":{"ID_station":"75117-13","nom_station":"Paris/Batignolles/92","adresse_station":"75017 Paris","nom_porteur":"Autolib","type_charge":"","nbre_pdc":"0","type_connecteur":"","date_maj":"","observations":"Emplacement: Station - Station: Voirie - Places tiers: 5","source":"Autolib"},"geometry":{"type":"Point","coordinates":[2.317631,48.8817521]}},{"type":"Feature","properties":{"ID_station":"75117-14","nom_station":"Paris/Dulong/67","adresse_station":"75017 Paris","nom_porteur":"Autolib","type_charge":"","nbre_pdc":"0","type_connecteur":"","date_maj":"","observations":"Emplacement: Station - Station: Voirie - Places tiers: 4","source":"Autolib"},"geometry":{"type":"Point","coordinates":[2.3151179,48.8863019]}},{"type":"Feature","properties":{"ID_station":"75117-21","nom_station":"Paris/Wagram/77","adresse_station":"75017 Paris","nom_porteur":"Autolib","type_charge":"","nbre_pdc":"0","type_connecteur":"","date_maj":"","observations":"Emplacement: Station - Station: Voirie - Places tiers: 4","source":"Autolib"},"geometry":{"type":"Point","coordinates":[2.2993184,48.8799479]}},{"type":"Feature","properties":{"ID_station":"75117-37","nom_station":"Paris/Legendre/22","adresse_station":"75017 Paris","nom_porteur":"Autolib","type_charge":"","nbre_pdc":"0","type_connecteur":"","date_maj":"","observations":"Emplacement: Station - Station: Voirie - Places tiers: 4","source":"Autolib"},"geometry":{"type":"Point","coordinates":[2.3127515,48.8832659]}},{"type":"Feature","properties":{"ID_station":"75117-40","nom_station":"Paris/Jouffroy d'Abbans/108","adresse_station":"75017 Paris","nom_porteur":"Autolib","type_charge":"","nbre_pdc":"0","type_connecteur":"","date_maj":"","observations":"Emplacement: Station - Station: Voirie - Places tiers: 4","source":"Autolib"},"geometry":{"type":"Point","coordinates":[2.3018911,48.8823377]}},{"type":"Feature","properties":{"ID_station":"75117-42","nom_station":"Paris/Ternes/6","adresse_station":"75017 Paris","nom_porteur":"Autolib","type_charge":"","nbre_pdc":"0","type_connecteur":"","date_maj":"","observations":"Emplacement: Station - Station: Voirie - Places tiers: 6","source":"Autolib"},"geometry":{"type":"Point","coordinates":[2.2967633,48.8782587]}},{"type":"Feature","properties":{"ID_station":"75117-PM","nom_station":"Paris/Gouvion Saint-Cyr/26","adresse_station":"75017 Paris","nom_porteur":"Autolib","type_charge":"","nbre_pdc":"0","type_connecteur":"","date_maj":"","observations":"Emplacement: Station - Station: Parking - Places tiers: 4","source":"Autolib"},"geometry":{"type":"Point","coordinates":[2.2880891,48.8834652]}},{"type":"Feature","properties":{"ID_station":"75118-04","nom_station":"Paris/Poteau/40","adresse_station":"75018 Paris","nom_porteur":"Autolib","type_charge":"","nbre_pdc":"0","type_connecteur":"","date_maj":"","observations":"Emplacement: Station - Station: Voirie - Places tiers: 4","source":"Autolib"},"geometry":{"type":"Point","coordinates":[2.3412577,48.8945152]}},{"type":"Feature","properties":{"ID_station":"75118-38","nom_station":"Paris/Jean Cocteau/2","adresse_station":"75018 Paris","nom_porteur":"Autolib","type_charge":"","nbre_pdc":"1","type_connecteur":"","date_maj":"","observations":"Emplacement: Station - Station: Voirie - Places tiers: 4","source":"Autolib"},"geometry":{"type":"Point","coordinates":[2.351156,48.8996]}},{"type":"Feature","properties":{"ID_station":"75119-10","nom_station":"Paris/Algérie/7","adresse_station":"75019 Paris","nom_porteur":"Autolib","type_charge":"","nbre_pdc":"0","type_connecteur":"","date_maj":"","observations":"Emplacement: Station - Station: Voirie - Places tiers: 4","source":"Autolib"},"geometry":{"type":"Point","coordinates":[2.4004487,48.8799263]}},{"type":"Feature","properties":{"ID_station":"75119-26","nom_station":"Paris/Sept Arpents/9","adresse_station":"75019 Paris","nom_porteur":"Autolib","type_charge":"","nbre_pdc":"1","type_connecteur":"","date_maj":"","observations":"Emplacement: Station - Station: Voirie - Places tiers: 4","source":"Autolib"},"geometry":{"type":"Point","coordinates":[2.398229,48.88947]}},{"type":"Feature","properties":{"ID_station":"75119-30","nom_station":"Paris/Bois/1","adresse_station":"75019 Paris","nom_porteur":"Autolib","type_charge":"","nbre_pdc":"0","type_connecteur":"","date_maj":"","observations":"Emplacement: Station - Station: Voirie - Places tiers: 4","source":"Autolib"},"geometry":{"type":"Point","coordinates":[2.3966042,48.8780077]}},{"type":"Feature","properties":{"ID_station":"75120-05","nom_station":"Paris/Gambetta/161","adresse_station":"75020 Paris","nom_porteur":"Autolib","type_charge":"","nbre_pdc":"0","type_connecteur":"","date_maj":"","observations":"Emplacement: Station - Station: Voirie - Places tiers: 4","source":"Autolib"},"geometry":{"type":"Point","coordinates":[2.403597,48.87083]}},{"type":"Feature","properties":{"ID_station":"75120-06","nom_station":"Paris/Pyrénées/236","adresse_station":"75020 Paris","nom_porteur":"Autolib","type_charge":"","nbre_pdc":"1","type_connecteur":"","date_maj":"","observations":"Emplacement: Station - Station: Voirie - Places tiers: 4","source":"Autolib"},"geometry":{"type":"Point","coordinates":[2.3965939,48.8674784]}},{"type":"Feature","properties":{"ID_station":"75120-07","nom_station":"Paris/Ménilmontant/30","adresse_station":"75020 Paris","nom_porteur":"Autolib","type_charge":"","nbre_pdc":"0","type_connecteur":"","date_maj":"","observations":"Emplacement: Station - Station: Voirie - Places tiers: 4","source":"Autolib"},"geometry":{"type":"Point","coordinates":[2.388035,48.86191]}},{"type":"Feature","properties":{"ID_station":"75120-43","nom_station":"Paris/Sorbier/14","adresse_station":"75020 Paris","nom_porteur":"Autolib","type_charge":"","nbre_pdc":"0","type_connecteur":"","date_maj":"","observations":"Emplacement: Station - Station: Voirie - Places tiers: 6","source":"Autolib"},"geometry":{"type":"Point","coordinates":[2.3906964,48.867322]}},{"type":"Feature","properties":{"ID_station":"92004-12","nom_station":"Asnières-sur-Seine/Robert Lavergne/11","adresse_station":"92600 Asnières-sur-Seine","nom_porteur":"Autolib","type_charge":"","nbre_pdc":"0","type_connecteur":"","date_maj":"","observations":"Emplacement: Station - Station: Voirie - Places tiers: 6","source":"Autolib"},"geometry":{"type":"Point","coordinates":[2.27253,48.92852]}},{"type":"Feature","properties":{"ID_station":"92004-15","nom_station":"Asnières-sur-Seine/Olympe de Gouge/1","adresse_station":"92600 Asnières-sur-Seine","nom_porteur":"Autolib","type_charge":"","nbre_pdc":"0","type_connecteur":"","date_maj":"","observations":"Emplacement: Station - Station: Voirie - Places tiers: 6","source":"Autolib"},"geometry":{"type":"Point","coordinates":[2.3189865,48.9179468]}},{"type":"Feature","properties":{"ID_station":"92004-22","nom_station":"Asnières-sur-Seine/Ménil/273","adresse_station":"92600 Asnières-sur-Seine","nom_porteur":"Autolib","type_charge":"","nbre_pdc":"0","type_connecteur":"","date_maj":"","observations":"Emplacement: Station - Station: Voirie - Places tiers: 6","source":"Autolib"},"geometry":{"type":"Point","coordinates":[2.273943,48.926]}},{"type":"Feature","properties":{"ID_station":"92007-03","nom_station":"Bagneux/Verdun/127","adresse_station":"92220 Bagneux","nom_porteur":"Autolib","type_charge":"","nbre_pdc":"0","type_connecteur":"","date_maj":"","observations":"Emplacement: Station - Station: Voirie - Places tiers: 6","source":"Autolib"},"geometry":{"type":"Point","coordinates":[2.321829,48.8019167]}},{"type":"Feature","properties":{"ID_station":"92007-05","nom_station":"Bagneux/Schweitzer/1","adresse_station":"92220 Bagneux","nom_porteur":"Autolib","type_charge":"","nbre_pdc":"0","type_connecteur":"","date_maj":"","observations":"Emplacement: Station - Station: Voirie - Places tiers: 6","source":"Autolib"},"geometry":{"type":"Point","coordinates":[2.313115,48.79006]}},{"type":"Feature","properties":{"ID_station":"92012-15","nom_station":"Boulogne-Billancourt/République/24","adresse_station":"92100 Boulogne-Billancourt","nom_porteur":"Autolib","type_charge":"","nbre_pdc":"0","type_connecteur":"","date_maj":"","observations":"Emplacement: Station - Station: Voirie - Places tiers: 6","source":"Autolib"},"geometry":{"type":"Point","coordinates":[2.254098,48.831826]}},{"type":"Feature","properties":{"ID_station":"92019-02","nom_station":"Châtenay-Malabry/Sully Prudhomme/33","adresse_station":"92290 Châtenay-Malabry","nom_porteur":"Autolib","type_charge":"","nbre_pdc":"0","type_connecteur":"","date_maj":"","observations":"Emplacement: Station - Station: Voirie - Places tiers: 6","source":"Autolib"},"geometry":{"type":"Point","coordinates":[2.290613,48.76587]}},{"type":"Feature","properties":{"ID_station":"92020-06","nom_station":"Châtillon/Division Leclerc/12","adresse_station":"92320 Châtillon","nom_porteur":"Autolib","type_charge":"","nbre_pdc":"0","type_connecteur":"","date_maj":"","observations":"Emplacement: Espace - Station: Voirie - Places tiers: 7","source":"Autolib"},"geometry":{"type":"Point","coordinates":[2.2846898,48.7991859]}},{"type":"Feature","properties":{"ID_station":"92023-01","nom_station":"Clamart/Victor Hugo/40","adresse_station":"92140 Clamart","nom_porteur":"Autolib","type_charge":"","nbre_pdc":"0","type_connecteur":"","date_maj":"","observations":"Emplacement: Station - Station: Voirie - Places tiers: 6","source":"Autolib"},"geometry":{"type":"Point","coordinates":[2.2673976,48.804098]}},{"type":"Feature","properties":{"ID_station":"92025-05","nom_station":"Colombes/Henri Barbusse/16","adresse_station":"92700 Colombes","nom_porteur":"Autolib","type_charge":"","nbre_pdc":"0","type_connecteur":"","date_maj":"","observations":"Emplacement: Station - Station: Voirie - Places tiers: 6","source":"Autolib"},"geometry":{"type":"Point","coordinates":[2.25258,48.92257]}},{"type":"Feature","properties":{"ID_station":"92025-06","nom_station":"Colombes/Gounod/1","adresse_station":"92700 Colombes","nom_porteur":"Autolib","type_charge":"","nbre_pdc":"0","type_connecteur":"","date_maj":"","observations":"Emplacement: Station - Station: Voirie - Places tiers: 6","source":"Autolib"},"geometry":{"type":"Point","coordinates":[2.2483611,48.9236174]}},{"type":"Feature","properties":{"ID_station":"92025-08","nom_station":"Colombes/Europe/5","adresse_station":"92700 Colombes","nom_porteur":"Autolib","type_charge":"","nbre_pdc":"0","type_connecteur":"","date_maj":"","observations":"Emplacement: Station - Station: Voirie - Places tiers: 6","source":"Autolib"},"geometry":{"type":"Point","coordinates":[2.2457526,48.92701]}},{"type":"Feature","properties":{"ID_station":"92025-09","nom_station":"Colombes/Renouillers/183","adresse_station":"92700 Colombes","nom_porteur":"Autolib","type_charge":"","nbre_pdc":"0","type_connecteur":"","date_maj":"","observations":"Emplacement: Station - Station: Voirie - Places tiers: 6","source":"Autolib"},"geometry":{"type":"Point","coordinates":[2.2368586,48.9236342]}},{"type":"Feature","properties":{"ID_station":"92025-12","nom_station":"Colombes/Félix Faure/7","adresse_station":"92700 Colombes","nom_porteur":"Autolib","type_charge":"","nbre_pdc":"0","type_connecteur":"","date_maj":"","observations":"Emplacement: Station - Station: Voirie - Places tiers: 7","source":"Autolib"},"geometry":{"type":"Point","coordinates":[2.2535759,48.914886]}},{"type":"Feature","properties":{"ID_station":"92025-17","nom_station":"Colombes/Valmy/160","adresse_station":"92700 Colombes","nom_porteur":"Autolib","type_charge":"","nbre_pdc":"0","type_connecteur":"","date_maj":"","observations":"Emplacement: Station - Station: Voirie - Places tiers: 7","source":"Autolib"},"geometry":{"type":"Point","coordinates":[2.257037,48.93586]}},{"type":"Feature","properties":{"ID_station":"92025-18","nom_station":"Colombes/Parc Lagravère/1","adresse_station":"92700 Colombes","nom_porteur":"Autolib","type_charge":"","nbre_pdc":"0","type_connecteur":"","date_maj":"","observations":"Emplacement: Station - Station: Voirie - Places tiers: 6","source":"Autolib"},"geometry":{"type":"Point","coordinates":[2.234716,48.92648]}},{"type":"Feature","properties":{"ID_station":"92026-07","nom_station":"Courbevoie/Arche/49","adresse_station":"92400 Courbevoie","nom_porteur":"Autolib","type_charge":"","nbre_pdc":"0","type_connecteur":"","date_maj":"","observations":"Emplacement: Station - Station: Voirie - Places tiers: 6","source":"Autolib"},"geometry":{"type":"Point","coordinates":[2.23817,48.897827]}},{"type":"Feature","properties":{"ID_station":"92035-02","nom_station":"La Garenne-Colombes/National/90","adresse_station":"92250 La Garenne-Colombes","nom_porteur":"Autolib","type_charge":"","nbre_pdc":"0","type_connecteur":"","date_maj":"","observations":"Emplacement: Station - Station: Voirie - Places tiers: 7","source":"Autolib"},"geometry":{"type":"Point","coordinates":[2.2374151,48.9086393]}},{"type":"Feature","properties":{"ID_station":"92035-04","nom_station":"La Garenne-Colombes/Colombes/126","adresse_station":"92250 La Garenne-Colombes","nom_porteur":"Autolib","type_charge":"","nbre_pdc":"0","type_connecteur":"","date_maj":"","observations":"Emplacement: Station - Station: Voirie - Places tiers: 6","source":"Autolib"},"geometry":{"type":"Point","coordinates":[2.2558349,48.9047803]}},{"type":"Feature","properties":{"ID_station":"92035-05","nom_station":"La Garenne-Colombes/National/31","adresse_station":"92250 La Garenne-Colombes","nom_porteur":"Autolib","type_charge":"","nbre_pdc":"0","type_connecteur":"","date_maj":"","observations":"Emplacement: Station - Station: Voirie - Places tiers: 6","source":"Autolib"},"geometry":{"type":"Point","coordinates":[2.239274,48.90347]}},{"type":"Feature","properties":{"ID_station":"92035-06","nom_station":"La Garenne-Colombes/Verdun/41","adresse_station":"92250 La Garenne-Colombes","nom_porteur":"Autolib","type_charge":"","nbre_pdc":"0","type_connecteur":"","date_maj":"","observations":"Emplacement: Station - Station: Voirie - Places tiers: 6","source":"Autolib"},"geometry":{"type":"Point","coordinates":[2.230934,48.90387]}},{"type":"Feature","properties":{"ID_station":"92040-03","nom_station":"Issy-les-Moulineaux/Leclerc/46","adresse_station":"92130 Issy-les-Moulineaux","nom_porteur":"Autolib","type_charge":"","nbre_pdc":"0","type_connecteur":"","date_maj":"","observations":"Emplacement: Espace - Station: Voirie - Places tiers: 6","source":"Autolib"},"geometry":{"type":"Point","coordinates":[2.2752102,48.824901]}},{"type":"Feature","properties":{"ID_station":"92040-08","nom_station":"Issy-les-Moulineaux/Îles/21","adresse_station":"92130 Issy-les-Moulineaux","nom_porteur":"Autolib","type_charge":"","nbre_pdc":"0","type_connecteur":"","date_maj":"","observations":"Emplacement: Station - Station: Voirie - Places tiers: 6","source":"Autolib"},"geometry":{"type":"Point","coordinates":[2.2498224,48.8226736]}},{"type":"Feature","properties":{"ID_station":"92040-15","nom_station":"Issy-les-Moulineaux/Gallieni/72","adresse_station":"92130 Issy-les-Moulineaux","nom_porteur":"Autolib","type_charge":"","nbre_pdc":"0","type_connecteur":"","date_maj":"","observations":"Emplacement: Station - Station: Voirie - Places tiers: 6","source":"Autolib"},"geometry":{"type":"Point","coordinates":[2.267632,48.827482]}},{"type":"Feature","properties":{"ID_station":"92044-PI","nom_station":"Levallois-Perret/Wilson/37","adresse_station":"92300 Levallois-Perret","nom_porteur":"Autolib","type_charge":"","nbre_pdc":"0","type_connecteur":"","date_maj":"","observations":"Emplacement: Station - Station: Parking - Places tiers: 7","source":"Autolib"},"geometry":{"type":"Point","coordinates":[2.291001,48.8913559]}},{"type":"Feature","properties":{"ID_station":"92046-03","nom_station":"Malakoff/Stalingrad/27","adresse_station":"92240 Malakoff","nom_porteur":"Autolib","type_charge":"","nbre_pdc":"0","type_connecteur":"","date_maj":"","observations":"Emplacement: Station - Station: Voirie - Places tiers: 5","source":"Autolib"},"geometry":{"type":"Point","coordinates":[2.2878426,48.8142269]}},{"type":"Feature","properties":{"ID_station":"92046-05","nom_station":"Malakoff/Paul Vaillant Couturier/49","adresse_station":"92240 Malakoff","nom_porteur":"Autolib","type_charge":"","nbre_pdc":"0","type_connecteur":"","date_maj":"","observations":"Emplacement: Station - Station: Voirie - Places tiers: 6","source":"Autolib"},"geometry":{"type":"Point","coordinates":[2.2959516,48.8137426]}},{"type":"Feature","properties":{"ID_station":"92048-02","nom_station":"Meudon/Paris/6","adresse_station":"92190 Meudon","nom_porteur":"Autolib","type_charge":"","nbre_pdc":"0","type_connecteur":"","date_maj":"","observations":"Emplacement: Station - Station: Voirie - Places tiers: 6","source":"Autolib"},"geometry":{"type":"Point","coordinates":[2.2480148,48.8169462]}},{"type":"Feature","properties":{"ID_station":"92048-04","nom_station":"Meudon/Verrerie/10","adresse_station":"92190 Meudon","nom_porteur":"Autolib","type_charge":"","nbre_pdc":"0","type_connecteur":"","date_maj":"","observations":"Emplacement: Espace - Station: Voirie - Places tiers: 7","source":"Autolib"},"geometry":{"type":"Point","coordinates":[2.23413,48.8204172]}},{"type":"Feature","properties":{"ID_station":"92050-01","nom_station":"Nanterre/Pesaro/2","adresse_station":"92000 Nanterre","nom_porteur":"Autolib","type_charge":"","nbre_pdc":"0","type_connecteur":"","date_maj":"","observations":"Emplacement: Station - Station: Voirie - Places tiers: 6","source":"Autolib"},"geometry":{"type":"Point","coordinates":[2.220012,48.89709]}},{"type":"Feature","properties":{"ID_station":"92050-06","nom_station":"Nanterre/Lenine/65","adresse_station":"92000 Nanterre","nom_porteur":"Autolib","type_charge":"","nbre_pdc":"0","type_connecteur":"","date_maj":"","observations":"Emplacement: Station - Station: Voirie - Places tiers: 7","source":"Autolib"},"geometry":{"type":"Point","coordinates":[2.191361,48.88811]}},{"type":"Feature","properties":{"ID_station":"92050-22","nom_station":"Nanterre/Lavoisier/14","adresse_station":"92000 Nanterre","nom_porteur":"Autolib","type_charge":"","nbre_pdc":"0","type_connecteur":"","date_maj":"","observations":"Emplacement: Station - Station: Voirie - Places tiers: 6","source":"Autolib"},"geometry":{"type":"Point","coordinates":[2.1743332,48.8951698]}},{"type":"Feature","properties":{"ID_station":"92050-26","nom_station":"Nanterre/Lens/13","adresse_station":"92000 Nanterre","nom_porteur":"Autolib","type_charge":"","nbre_pdc":"0","type_connecteur":"","date_maj":"","observations":"Emplacement: Station - Station: Voirie - Places tiers: 4","source":"Autolib"},"geometry":{"type":"Point","coordinates":[2.2242026,48.8998826]}},{"type":"Feature","properties":{"ID_station":"92050-28","nom_station":"Nanterre/Guilleraies/5","adresse_station":"92000 Nanterre","nom_porteur":"Autolib","type_charge":"","nbre_pdc":"0","type_connecteur":"","date_maj":"","observations":"Emplacement: Station - Station: Voirie - Places tiers: 4","source":"Autolib"},"geometry":{"type":"Point","coordinates":[2.1862673,48.8936159]}},{"type":"Feature","properties":{"ID_station":"92050-29","nom_station":"Nanterre/Luaps/17","adresse_station":"92000 Nanterre","nom_porteur":"Autolib","type_charge":"","nbre_pdc":"0","type_connecteur":"","date_maj":"","observations":"Emplacement: Station - Station: Voirie - Places tiers: 6","source":"Autolib"},"geometry":{"type":"Point","coordinates":[2.2105524,48.8803944]}},{"type":"Feature","properties":{"ID_station":"92050-32","nom_station":"Nanterre/Union/13","adresse_station":"92000 Nanterre","nom_porteur":"Autolib","type_charge":"","nbre_pdc":"0","type_connecteur":"","date_maj":"","observations":"Emplacement: Station - Station: Voirie - Places tiers: 5","source":"Autolib"},"geometry":{"type":"Point","coordinates":[2.1927044,48.898941]}},{"type":"Feature","properties":{"ID_station":"92060-02","nom_station":"Plessis-Robinson/Chaussée de l'Etang/109","adresse_station":"92350 Plessis-Robinson","nom_porteur":"Autolib","type_charge":"","nbre_pdc":"0","type_connecteur":"","date_maj":"","observations":"Emplacement: Station - Station: Voirie - Places tiers: 6","source":"Autolib"},"geometry":{"type":"Point","coordinates":[2.271527,48.78378]}},{"type":"Feature","properties":{"ID_station":"92063-07","nom_station":"Rueil-Malmaison/Richelieu/3","adresse_station":"92500 Rueil-Malmaison","nom_porteur":"Autolib","type_charge":"","nbre_pdc":"0","type_connecteur":"","date_maj":"","observations":"Emplacement: Station - Station: Voirie - Places tiers: 6","source":"Autolib"},"geometry":{"type":"Point","coordinates":[2.182237,48.87339]}},{"type":"Feature","properties":{"ID_station":"92063-14","nom_station":"Rueil-Malmaison/18 Juin 1940/175","adresse_station":"92500 Rueil-Malmaison","nom_porteur":"Autolib","type_charge":"","nbre_pdc":"0","type_connecteur":"","date_maj":"","observations":"Emplacement: Station - Station: Voirie - Places tiers: 6","source":"Autolib"},"geometry":{"type":"Point","coordinates":[2.2053436,48.8650741]}},{"type":"Feature","properties":{"ID_station":"92063-22","nom_station":"Rueil-Malmaison/8 mai 1945/2","adresse_station":"92500 Rueil-Malmaison","nom_porteur":"Autolib","type_charge":"","nbre_pdc":"0","type_connecteur":"","date_maj":"","observations":"Emplacement: Station - Station: Voirie - Places tiers: 6","source":"Autolib"},"geometry":{"type":"Point","coordinates":[2.20283,48.8713591]}},{"type":"Feature","properties":{"ID_station":"92072-13","nom_station":"Sèvres/Wolfenbüttel/1","adresse_station":"92310 Sèvres","nom_porteur":"Autolib","type_charge":"","nbre_pdc":"0","type_connecteur":"","date_maj":"","observations":"Emplacement: Station - Station: Voirie - Places tiers: 6","source":"Autolib"},"geometry":{"type":"Point","coordinates":[2.213332,48.812502]}},{"type":"Feature","properties":{"ID_station":"92072-14","nom_station":"Sèvres/Cristallerie/2","adresse_station":"92310 Sèvres","nom_porteur":"Autolib","type_charge":"","nbre_pdc":"0","type_connecteur":"","date_maj":"","observations":"Emplacement: Station - Station: Voirie - Places tiers: 4","source":"Autolib"},"geometry":{"type":"Point","coordinates":[2.22331,48.82682]}},{"type":"Feature","properties":{"ID_station":"92073-03","nom_station":"Suresnes/Verdun/15","adresse_station":"92150 Suresnes","nom_porteur":"Autolib","type_charge":"","nbre_pdc":"1","type_connecteur":"","date_maj":"","observations":"Emplacement: Espace - Station: Voirie - Places tiers: 6","source":"Autolib"},"geometry":{"type":"Point","coordinates":[2.2276552,48.871036]}},{"type":"Feature","properties":{"ID_station":"92073-04","nom_station":"Suresnes/Henri Sellier/50","adresse_station":"92150 Suresnes","nom_porteur":"Autolib","type_charge":"","nbre_pdc":"0","type_connecteur":"","date_maj":"","observations":"Emplacement: Station - Station: Voirie - Places tiers: 6","source":"Autolib"},"geometry":{"type":"Point","coordinates":[2.223116,48.86847]}},{"type":"Feature","properties":{"ID_station":"92073-11","nom_station":"Suresnes/Charles Péguy/1","adresse_station":"92150 Suresnes","nom_porteur":"Autolib","type_charge":"","nbre_pdc":"0","type_connecteur":"","date_maj":"","observations":"Emplacement: Station - Station: Voirie - Places tiers: 5","source":"Autolib"},"geometry":{"type":"Point","coordinates":[2.2255443,48.8683519]}},{"type":"Feature","properties":{"ID_station":"92073-14","nom_station":"Suresnes/Marcel Monge/2","adresse_station":"92150 Suresnes","nom_porteur":"Autolib","type_charge":"","nbre_pdc":"1","type_connecteur":"","date_maj":"","observations":"Emplacement: Station - Station: Voirie - Places tiers: 6","source":"Autolib"},"geometry":{"type":"Point","coordinates":[2.224382,48.86121]}},{"type":"Feature","properties":{"ID_station":"92075-04","nom_station":"Vanves/Jean Bleuzen/77","adresse_station":"92170 Vanves","nom_porteur":"Autolib","type_charge":"","nbre_pdc":"0","type_connecteur":"","date_maj":"","observations":"Emplacement: Espace - Station: Voirie - Places tiers: 6","source":"Autolib"},"geometry":{"type":"Point","coordinates":[2.2967875,48.8235138]}},{"type":"Feature","properties":{"ID_station":"92077-01","nom_station":"Ville-d'Avray/Charles de Gaulle/1","adresse_station":"92410 Ville-d'Avray","nom_porteur":"Autolib","type_charge":"","nbre_pdc":"0","type_connecteur":"","date_maj":"","observations":"Emplacement: Espace - Station: Voirie - Places tiers: 5","source":"Autolib"},"geometry":{"type":"Point","coordinates":[2.18935,48.826]}},{"type":"Feature","properties":{"ID_station":"92077-02","nom_station":"Ville-d'Avray/Versailles/211","adresse_station":"92410 Ville-d'Avray","nom_porteur":"Autolib","type_charge":"","nbre_pdc":"0","type_connecteur":"","date_maj":"","observations":"Emplacement: Station - Station: Voirie - Places tiers: 6","source":"Autolib"},"geometry":{"type":"Point","coordinates":[2.164893,48.81805]}},{"type":"Feature","properties":{"ID_station":"93006-03","nom_station":"Bagnolet/Sadi Carnot/213","adresse_station":"93170 Bagnolet","nom_porteur":"Autolib","type_charge":"","nbre_pdc":"0","type_connecteur":"","date_maj":"","observations":"Emplacement: Station - Station: Voirie - Places tiers: 6","source":"Autolib"},"geometry":{"type":"Point","coordinates":[2.4267206,48.8777608]}},{"type":"Feature","properties":{"ID_station":"93013-01","nom_station":"Le Bourget/Chevalier de la Barre/7","adresse_station":"93350 Le Bourget","nom_porteur":"Autolib","type_charge":"","nbre_pdc":"0","type_connecteur":"","date_maj":"","observations":"Emplacement: Station - Station: Voirie - Places tiers: 5","source":"Autolib"},"geometry":{"type":"Point","coordinates":[2.424912,48.9311]}},{"type":"Feature","properties":{"ID_station":"93013-03","nom_station":"Le Bourget/John Fitzgerald Kennedy/2","adresse_station":"93350 Le Bourget","nom_porteur":"Autolib","type_charge":"","nbre_pdc":"1","type_connecteur":"","date_maj":"","observations":"Emplacement: Station - Station: Voirie - Places tiers: 6","source":"Autolib"},"geometry":{"type":"Point","coordinates":[2.4286035,48.938103]}},{"type":"Feature","properties":{"ID_station":"93029-12","nom_station":"Drancy/Roger Salengro/97","adresse_station":"93700 Drancy","nom_porteur":"Autolib","type_charge":"","nbre_pdc":"0","type_connecteur":"","date_maj":"","observations":"Emplacement: Station - Station: Voirie - Places tiers: 5","source":"Autolib"},"geometry":{"type":"Point","coordinates":[2.4362063,48.9166381]}},{"type":"Feature","properties":{"ID_station":"93029-13","nom_station":"Drancy/Nouvelle/7","adresse_station":"93700 Drancy","nom_porteur":"Autolib","type_charge":"","nbre_pdc":"1","type_connecteur":"","date_maj":"","observations":"Emplacement: Station - Station: Voirie - Places tiers: 7","source":"Autolib"},"geometry":{"type":"Point","coordinates":[2.4358951,48.9241686]}},{"type":"Feature","properties":{"ID_station":"93045-02","nom_station":"Les Lilas/Bruyères/10","adresse_station":"93260 Les Lilas","nom_porteur":"Autolib","type_charge":"","nbre_pdc":"0","type_connecteur":"","date_maj":"","observations":"Emplacement: Station - Station: Voirie - Places tiers: 7","source":"Autolib"},"geometry":{"type":"Point","coordinates":[2.413255,48.8783253]}},{"type":"Feature","properties":{"ID_station":"93045-03","nom_station":"Les Lilas/Léon Renault/19","adresse_station":"93260 Les Lilas","nom_porteur":"Autolib","type_charge":"","nbre_pdc":"0","type_connecteur":"","date_maj":"","observations":"Emplacement: Station - Station: Voirie - Places tiers: 6","source":"Autolib"},"geometry":{"type":"Point","coordinates":[2.4223705,48.8810551]}},{"type":"Feature","properties":{"ID_station":"93055-03","nom_station":"Pantin/Pré Saint Gervais/1","adresse_station":"93500 Pantin","nom_porteur":"Autolib","type_charge":"","nbre_pdc":"0","type_connecteur":"","date_maj":"","observations":"Emplacement: Espace - Station: Voirie - Places tiers: 6","source":"Autolib"},"geometry":{"type":"Point","coordinates":[2.4030061,48.890711]}},{"type":"Feature","properties":{"ID_station":"93063-02","nom_station":"Romainville/Commune de Paris/100","adresse_station":"93230 Romainville","nom_porteur":"Autolib","type_charge":"","nbre_pdc":"0","type_connecteur":"","date_maj":"","observations":"Emplacement: Station - Station: Voirie - Places tiers: 5","source":"Autolib"},"geometry":{"type":"Point","coordinates":[2.432462,48.89449]}},{"type":"Feature","properties":{"ID_station":"93064-01","nom_station":"Rosny-sous-Bois/Claude Pernès/1","adresse_station":"93110 Rosny-sous-Bois","nom_porteur":"Autolib","type_charge":"","nbre_pdc":"0","type_connecteur":"","date_maj":"","observations":"Emplacement: Espace - Station: Voirie - Places tiers: 7","source":"Autolib"},"geometry":{"type":"Point","coordinates":[2.4872191,48.8728916]}},{"type":"Feature","properties":{"ID_station":"93064-05","nom_station":"Rosny-sous-Bois/Léon Blum/10","adresse_station":"93110 Rosny-sous-Bois","nom_porteur":"Autolib","type_charge":"","nbre_pdc":"0","type_connecteur":"","date_maj":"","observations":"Emplacement: Station - Station: Voirie - Places tiers: 6","source":"Autolib"},"geometry":{"type":"Point","coordinates":[2.480821,48.88126]}},{"type":"Feature","properties":{"ID_station":"93070-03","nom_station":"Saint-Ouen/Louis Blanc/35","adresse_station":"93400 Saint-Ouen","nom_porteur":"Autolib","type_charge":"","nbre_pdc":"0","type_connecteur":"","date_maj":"","observations":"Emplacement: Station - Station: Voirie - Places tiers: 5","source":"Autolib"},"geometry":{"type":"Point","coordinates":[2.3314347,48.9072038]}},{"type":"Feature","properties":{"ID_station":"93070-08","nom_station":"Saint-Ouen/Lafontaine/1","adresse_station":"93400 Saint-Ouen","nom_porteur":"Autolib","type_charge":"","nbre_pdc":"0","type_connecteur":"","date_maj":"","observations":"Emplacement: Station - Station: Voirie - Places tiers: 5","source":"Autolib"},"geometry":{"type":"Point","coordinates":[2.327399,48.901404]}},{"type":"Feature","properties":{"ID_station":"93070-10","nom_station":"Saint-Ouen/Entrepôts/2","adresse_station":"93400 Saint-Ouen","nom_porteur":"Autolib","type_charge":"","nbre_pdc":"0","type_connecteur":"","date_maj":"","observations":"Emplacement: Station - Station: Voirie - Places tiers: 6","source":"Autolib"},"geometry":{"type":"Point","coordinates":[2.3470283,48.9034828]}},{"type":"Feature","properties":{"ID_station":"94003-01","nom_station":"Arcueil/François Raspail/32","adresse_station":"94110 Arcueil","nom_porteur":"Autolib","type_charge":"","nbre_pdc":"0","type_connecteur":"","date_maj":"","observations":"Emplacement: Station - Station: Voirie - Places tiers: 6","source":"Autolib"},